stop_id,stop_code,stop_name,stop_desc,stop_lat,stop_lon,zone_id,stop_url,location_type,parent_station
90013908,13908,Surau Al Ehsan,BA:Surau Al Ehsan,2.32174,102.28916,90013908,http://otp.transitos.io/otpws/api/cities/6/index/stops/1:90013908,0,
90013478,13478,Taman Perindustrian Krubong,BA:Taman Perindustrian Krubong,2.27916,102.23772,90013478,http://otp.transitos.io/otpws/api/cities/6/index/stops/1:90013478,0,
90013487,13487,Jalan 1 Krubong Gate 2,BA:Jalan 1 Krubong Gate 2,2.30662,102.25182,90013487,http://otp.transitos.io/otpws/api/cities/6/index/stops/1:90013487,0,
90013592,13592,Masjid Bilal Bin Rabah Tanjong Kling,BA:Masjid Bilal Bin Rabah Tanjong Kling,2.22131,102.16236,90013592,http://otp.transitos.io/otpws/api/cities/6/index/stops/1:90013592,0,
90013346,13346,Opp Hospital Melaka,BA:Opp Hospital Melaka,2.21849,102.26008,90013346,http://otp.transitos.io/otpws/api/cities/6/index/stops/1:90013346,0,
90013942,13942,Taman Seri Cahaya,BA:Taman Seri Cahaya,2.43936,102.33945,90013942,http://otp.transitos.io/otpws/api/cities/6/index/stops/1:90013942,0,
90013621,13621,Pejabat Pos Jalan Laksamana,BA:Pejabat Pos Jalan Laksamana,2.19504,102.24971,90013621,http://otp.transitos.io/otpws/api/cities/6/index/stops/1:90013621,0,
90013812,13812,Pan Pacific Straptek,BA:Pan Pacific Straptek,2.22321,102.16089,90013812,http://otp.transitos.io/otpws/api/cities/6/index/stops/1:90013812,0,
90013540,13540,Kampung Tengah Melaka,BA:Kampung Tengah Melaka,2.21765,102.20424,90013540,http://otp.transitos.io/otpws/api/cities/6/index/stops/1:90013540,0,
90013823,13823,Taman Tangga Batu 2,BA:Taman Tangga Batu 2,2.25346,102.15294,90013823,http://otp.transitos.io/otpws/api/cities/6/index/stops/1:90013823,0,
90013469,13469,Xepa - Soul Pattinson,BA:Xepa - Soul Pattinson,2.25134,102.22912,90013469,http://otp.transitos.io/otpws/api/cities/6/index/stops/1:90013469,0,
90013374,13374,Klinik Kesihatan Air Keroh,BA:Klinik Kesihatan Air Keroh,2.26649,102.28455,90013374,http://otp.transitos.io/otpws/api/cities/6/index/stops/1:90013374,0,
90013552,13552,Kampung Pesaran Balik Buluk Klebang,BA:Kampung Pesaran Balik Buluk Klebang,2.21829,102.19603,90013552,http://otp.transitos.io/otpws/api/cities/6/index/stops/1:90013552,0,
90013743,13743,Balai Polis Durian Tunggal,BA:Balai Polis Durian Tunggal,2.31213,102.28374,90013743,http://otp.transitos.io/otpws/api/cities/6/index/stops/1:90013743,0,
90013458,13458,Opp Balai Panjang,BA:Opp Balai Panjang,2.22651,102.2303,90013458,http://otp.transitos.io/otpws/api/cities/6/index/stops/1:90013458,0,
90013994,13994,Sime Darby Plantation Jasin,BA:Sime Darby Plantation Jasin,2.32309,102.48341,90013994,http://otp.transitos.io/otpws/api/cities/6/index/stops/1:90013994,0,
90013951,13951,Kampung Batang Melaka 1,BA:Kampung Batang Melaka 1,2.4696,102.39753,90013951,http://otp.transitos.io/otpws/api/cities/6/index/stops/1:90013951,0,
90013997,13997,Green One/Kampung Betis,BA:Green One/Kampung Betis,2.33526,102.50671,90013997,http://otp.transitos.io/otpws/api/cities/6/index/stops/1:90013997,0,
90013614,13614,Taman Saujana Puri,BA:Taman Saujana Puri,2.23392,102.30103,90013614,http://otp.transitos.io/otpws/api/cities/6/index/stops/1:90013614,0,
90013911,13911,Scientex Durian Tunggal,BA:Scientex Durian Tunggal,2.32589,102.29514,90013911,http://otp.transitos.io/otpws/api/cities/6/index/stops/1:90013911,0,
90013405,13405,Opp Taman Merak,BA:Opp Taman Merak,2.22967,102.29405,90013405,http://otp.transitos.io/otpws/api/cities/6/index/stops/1:90013405,0,
90013888,13888,Masjid Lama Batang Tiga,BA:Masjid Lama Batang Tiga,2.22055,102.18603,90013888,http://otp.transitos.io/otpws/api/cities/6/index/stops/1:90013888,0,
90013984,13984,Bulatan Kampung Air Barok,BA:Bulatan Kampung Air Barok,2.31039,102.42776,90013984,http://otp.transitos.io/otpws/api/cities/6/index/stops/1:90013984,0,
90013738,13738,Taman Cempaka Heights,BA:Taman Cempaka Heights,2.30367,102.30233,90013738,http://otp.transitos.io/otpws/api/cities/6/index/stops/1:90013738,0,
90013564,13564,Kampung Bukit Rambai,BA:Kampung Bukit Rambai,2.24752,102.19072,90013564,http://otp.transitos.io/otpws/api/cities/6/index/stops/1:90013564,0,
90013607,13607,SK Pantai Kundor,BA:SK Pantai Kundor,2.2522,102.1384,90013607,http://otp.transitos.io/otpws/api/cities/6/index/stops/1:90013607,0,
90013756,13756,Taman Belimbing Indah,BA:Taman Belimbing Indah,2.32509,102.25965,90013756,http://otp.transitos.io/otpws/api/cities/6/index/stops/1:90013756,0,
90013706,13706,Opp Mydin Pulau Sebang,BA:Opp Mydin Pulau Sebang,2.4619,102.23108,90013706,http://otp.transitos.io/otpws/api/cities/6/index/stops/1:90013706,0,
90013364,13364,Opp SMK Tun Mahathir,BA:Opp SMK Tun Mahathir,2.25591,102.25627,90013364,http://otp.transitos.io/otpws/api/cities/6/index/stops/1:90013364,0,
90013866,13866,SK Pengkalan Balak,BA:SK Pengkalan Balak,2.32628,102.07946,90013866,http://otp.transitos.io/otpws/api/cities/6/index/stops/1:90013866,0,
90014482,14482,SMKA Sultan Muhammad,BA:SMKA Sultan Muhammad,2.23478,102.26344,90014482,http://otp.transitos.io/otpws/api/cities/6/index/stops/1:90014482,0,
90013993,13993,Taman Jarim Jaya,BA:Taman Jarim Jaya,2.3228,102.46514,90013993,http://otp.transitos.io/otpws/api/cities/6/index/stops/1:90013993,0,
90013353,13353,Taman Mutiara Melaka,BA:Taman Mutiara Melaka,2.24074,102.25886,90013353,http://otp.transitos.io/otpws/api/cities/6/index/stops/1:90013353,0,
90013547,13547,Kompleks Pertanian Pulau Gadong,BA:Kompleks Pertanian Pulau Gadong,2.2357,102.21167,90013547,http://otp.transitos.io/otpws/api/cities/6/index/stops/1:90013547,0,
90013848,13848,Restoran Astana Puteh,BA:Restoran Astana Puteh,2.33966,102.11675,90013848,http://otp.transitos.io/otpws/api/cities/6/index/stops/1:90013848,0,
90013365,13365,Taman Beringin Melaka,BA:Taman Beringin Melaka,2.25692,102.26065,90013365,http://otp.transitos.io/otpws/api/cities/6/index/stops/1:90013365,0,
90013490,13490,Kedai Nasi Ayam Jalan Pantai,BA:Kedai Nasi Ayam Jalan Pantai,2.33226,102.25011,90013490,http://otp.transitos.io/otpws/api/cities/6/index/stops/1:90013490,0,
90013383,13383,Opp Mini Malaysia,BA:Opp Mini Malaysia,2.28357,102.30339,90013383,http://otp.transitos.io/otpws/api/cities/6/index/stops/1:90013383,0,
90014000,14000,Kampung Baru Parit Keliling,BA:Kampung Baru Parit Keliling,2.3594,102.5016,90014000,http://otp.transitos.io/otpws/api/cities/6/index/stops/1:90014000,0,
90013897,13897,Opp Taman Gangsa,BA:Opp Taman Gangsa,2.28102,102.26179,90013897,http://otp.transitos.io/otpws/api/cities/6/index/stops/1:90013897,0,
90013558,13558,Smk Klebang,BA:Smk Klebang,2.2252,102.18804,90013558,http://otp.transitos.io/otpws/api/cities/6/index/stops/1:90013558,0,
90013603,13603,Masjid Km13,BA:Masjid Km13,2.23663,102.1447,90013603,http://otp.transitos.io/otpws/api/cities/6/index/stops/1:90013603,0,
90013588,13588,SK Lereh,BA:SK Lereh,2.22172,102.16958,90013588,http://otp.transitos.io/otpws/api/cities/6/index/stops/1:90013588,0,
90013986,13986,Sjk(C) Yu Hsien,BA:Sjk(C) Yu Hsien,2.31357,102.43363,90013986,http://otp.transitos.io/otpws/api/cities/6/index/stops/1:90013986,0,
90013481,13481,Kampung Ladang Melaka,BA:Kampung Ladang Melaka,2.29226,102.24322,90013481,http://otp.transitos.io/otpws/api/cities/6/index/stops/1:90013481,0,
90013719,13719,Opp SMS Muzaffar Shah,BA:Opp SMS Muzaffar Shah,2.24359,102.2909,90013719,http://otp.transitos.io/otpws/api/cities/6/index/stops/1:90013719,0,
90013423,13423,Kampung Bakar Batu,BA:Kampung Bakar Batu,2.22226,102.24154,90013423,http://otp.transitos.io/otpws/api/cities/6/index/stops/1:90013423,0,
90014012,14012,Pejabat Pos Asahan,BA:Pejabat Pos Asahan,2.39345,102.54741,90014012,http://otp.transitos.io/otpws/api/cities/6/index/stops/1:90014012,0,
90013571,13571,Pejabat Mca Bukit Rambai,BA:Pejabat Mca Bukit Rambai,2.25759,102.17823,90013571,http://otp.transitos.io/otpws/api/cities/6/index/stops/1:90013571,0,
90014475,14475,Regal Park,BA:Regal Park,2.24962,102.27414,90014475,http://otp.transitos.io/otpws/api/cities/6/index/stops/1:90014475,0,
90013801,13801,Muzium Warisan Naning Melaka,BA:Muzium Warisan Naning Melaka,2.43573,102.18471,90013801,http://otp.transitos.io/otpws/api/cities/6/index/stops/1:90013801,0,
90013583,13583,Zill Golden Village,BA:Zill Golden Village,2.22194,102.17926,90013583,http://otp.transitos.io/otpws/api/cities/6/index/stops/1:90013583,0,
90013877,13877,Opp Taman Seri Bayu,BA:Opp Taman Seri Bayu,2.38336,102.21259,90013877,http://otp.transitos.io/otpws/api/cities/6/index/stops/1:90013877,0,
90013745,13745,Pekan Durian Tunggal,BA:Pekan Durian Tunggal,2.31326,102.28226,90013745,http://otp.transitos.io/otpws/api/cities/6/index/stops/1:90013745,0,
90013620,13620,Jongker Walk/Stadhuys,BA:Jongker Walk/Stadhuys,2.1945,102.24902,90013620,http://otp.transitos.io/otpws/api/cities/6/index/stops/1:90013620,0,
90013663,13663,Taman Bukit Rumbia,BA:Taman Bukit Rumbia,2.33298,102.20945,90013663,http://otp.transitos.io/otpws/api/cities/6/index/stops/1:90013663,0,
90013376,13376,Mydin MITC,BA:Mydin MITC,2.27078,102.29163,90013376,http://otp.transitos.io/otpws/api/cities/6/index/stops/1:90013376,0,
90013407,13407,JPJ Melaka,BA:JPJ Melaka,2.22907,102.29681,90013407,http://otp.transitos.io/otpws/api/cities/6/index/stops/1:90013407,0,
90013988,13988,Kampung Rim,BA:Kampung Rim,2.30934,102.44553,90013988,http://otp.transitos.io/otpws/api/cities/6/index/stops/1:90013988,0,
90013859,13859,Jalan Haji Mad Arif,BA:Jalan Haji Mad Arif,2.3403,102.08986,90013859,http://otp.transitos.io/otpws/api/cities/6/index/stops/1:90013859,0,
90013973,13973,Kampung Ayer Panas,BA:Kampung Ayer Panas,2.28891,102.37631,90013973,http://otp.transitos.io/otpws/api/cities/6/index/stops/1:90013973,0,
90013625,13625,SMK Convent Melaka,BA:SMK Convent Melaka,2.18932,102.25639,90013625,http://otp.transitos.io/otpws/api/cities/6/index/stops/1:90013625,0,
90013422,13422,Kampung Lapang Bachang,BA:Kampung Lapang Bachang,2.21433,102.24029,90013422,http://otp.transitos.io/otpws/api/cities/6/index/stops/1:90013422,0,
90013500,13500,Opp SMK Malim,BA:Opp SMK Malim,2.25227,102.2227,90013500,http://otp.transitos.io/otpws/api/cities/6/index/stops/1:90013500,0,
90013933,13933,Pasar Awam Batang Melaka,BA:Pasar Awam Batang Melaka,2.47332,102.417,90013933,http://otp.transitos.io/otpws/api/cities/6/index/stops/1:90013933,0,
90013515,13515,Opp Taman Bertam Indah,BA:Opp Taman Bertam Indah,2.28989,102.20039,90013515,http://otp.transitos.io/otpws/api/cities/6/index/stops/1:90013515,0,
90013387,13387,Taman Goodwood,BA:Taman Goodwood,2.21613,102.26822,90013387,http://otp.transitos.io/otpws/api/cities/6/index/stops/1:90013387,0,
90013503,13503,Opp Kampung Cheng,BA:Opp Kampung Cheng,2.26313,102.21955,90013503,http://otp.transitos.io/otpws/api/cities/6/index/stops/1:90013503,0,
90013944,13944,SJK (C) Khiaw Wah,BA:SJK (C) Khiaw Wah,2.44737,102.34237,90013944,http://otp.transitos.io/otpws/api/cities/6/index/stops/1:90013944,0,
90013836,13836,Pekan Sungai Udang,BA:Pekan Sungai Udang,2.28668,102.13283,90013836,http://otp.transitos.io/otpws/api/cities/6/index/stops/1:90013836,0,
90013977,13977,Sk Kesang Tua,BA:Sk Kesang Tua,2.31717,102.39793,90013977,http://otp.transitos.io/otpws/api/cities/6/index/stops/1:90013977,0,
90013573,13573,SMK Bukit Rambai,BA:SMK Bukit Rambai,2.259,102.17328,90013573,http://otp.transitos.io/otpws/api/cities/6/index/stops/1:90013573,0,
90013725,13725,Opp Ayer Keroh Heights,BA:Opp Ayer Keroh Heights,2.25476,102.29179,90013725,http://otp.transitos.io/otpws/api/cities/6/index/stops/1:90013725,0,
90013570,13570,MPKK Bukit Rambai,BA:MPKK Bukit Rambai,2.2523,102.18306,90013570,http://otp.transitos.io/otpws/api/cities/6/index/stops/1:90013570,0,
90013868,13868,Pantai Pengkalan Balak,BA:Pantai Pengkalan Balak,2.32272,102.06982,90013868,http://otp.transitos.io/otpws/api/cities/6/index/stops/1:90013868,0,
90013629,13629,Kampung Ujong Pasir,BA:Kampung Ujong Pasir,2.18755,102.26946,90013629,http://otp.transitos.io/otpws/api/cities/6/index/stops/1:90013629,0,
90013404,13404,Taman Merak,BA:Taman Merak,2.22961,102.29394,90013404,http://otp.transitos.io/otpws/api/cities/6/index/stops/1:90013404,0,
90013650,13650,Paya Rumput,BA:Paya Rumput,2.30541,102.21417,90013650,http://otp.transitos.io/otpws/api/cities/6/index/stops/1:90013650,0,
90013362,13362,Medan Selera batu Berendam,BA:Medan Selera batu Berendam,2.25366,102.25457,90013362,http://otp.transitos.io/otpws/api/cities/6/index/stops/1:90013362,0,
90013935,13935,Kampung Ayer Bangkong,BA:Kampung Ayer Bangkong,2.38768,102.34628,90013935,http://otp.transitos.io/otpws/api/cities/6/index/stops/1:90013935,0,
90014468,14468,Opp SK Bukit Beruang,BA:Opp SK Bukit Beruang,2.2395,102.2796,90014468,http://otp.transitos.io/otpws/api/cities/6/index/stops/1:90014468,0,
90013785,13785,Hospital Alor Gajah Luar,BA:Hospital Alor Gajah Luar,2.39572,102.20349,90013785,http://otp.transitos.io/otpws/api/cities/6/index/stops/1:90013785,0,
90013711,13711,Kampung Batu Hampar,BA:Kampung Batu Hampar,2.22557,102.26375,90013711,http://otp.transitos.io/otpws/api/cities/6/index/stops/1:90013711,0,
90013825,13825,SK Tangga Batu,BA:SK Tangga Batu,2.26248,102.14874,90013825,http://otp.transitos.io/otpws/api/cities/6/index/stops/1:90013825,0,
90013347,13347,Sirim Melaka,BA:Sirim Melaka,2.22803,102.26197,90013347,http://otp.transitos.io/otpws/api/cities/6/index/stops/1:90013347,0,
90013724,13724,Rumah Pangsa Murni,BA:Rumah Pangsa Murni,2.25112,102.29164,90013724,http://otp.transitos.io/otpws/api/cities/6/index/stops/1:90013724,0,
90013456,13456,Opp Taman Malim Indah,BA:Opp Taman Malim Indah,2.22399,102.23257,90013456,http://otp.transitos.io/otpws/api/cities/6/index/stops/1:90013456,0,
90013642,13642,Opp Rumah Panjang Paya Rumput,BA:Opp Rumah Panjang Paya Rumput,2.28743,102.21367,90013642,http://otp.transitos.io/otpws/api/cities/6/index/stops/1:90013642,0,
90013519,13519,Tanjung Minyak Perdana,BA:Tanjung Minyak Perdana,2.28583,102.18205,90013519,http://otp.transitos.io/otpws/api/cities/6/index/stops/1:90013519,0,
90013788,13788,Kampung Paya Datok,BA:Kampung Paya Datok,2.39878,102.20319,90013788,http://otp.transitos.io/otpws/api/cities/6/index/stops/1:90013788,0,
90013430,13430,Taman Bachang Baru 1,BA:Taman Bachang Baru 1,2.2423,102.24731,90013430,http://otp.transitos.io/otpws/api/cities/6/index/stops/1:90013430,0,
90013915,13915,Taman Machap Bestari,BA:Taman Machap Bestari,2.37139,102.34464,90013915,http://otp.transitos.io/otpws/api/cities/6/index/stops/1:90013915,0,
90013844,13844,Taman Masjid Tanah,BA:Taman Masjid Tanah,2.32747,102.13038,90013844,http://otp.transitos.io/otpws/api/cities/6/index/stops/1:90013844,0,
90013852,13852,Terminal Masjid Tanah Sentral,BA:Terminal Masjid Tanah Sentral,2.35179,102.11045,90013852,http://otp.transitos.io/otpws/api/cities/6/index/stops/1:90013852,0,
90013827,13827,Kampung Sungai Udang Jaya,BA:Kampung Sungai Udang Jaya,2.26789,102.14492,90013827,http://otp.transitos.io/otpws/api/cities/6/index/stops/1:90013827,0,
90013808,13808,Dusun Acik Apau,BA:Dusun Acik Apau,2.46149,102.17862,90013808,http://otp.transitos.io/otpws/api/cities/6/index/stops/1:90013808,0,
90013842,13842,Kampung Tanah Merah Baru,BA:Kampung Tanah Merah Baru,2.30012,102.13066,90013842,http://otp.transitos.io/otpws/api/cities/6/index/stops/1:90013842,0,
90014470,14470,Opp SJK C Bukit Beruang,BA:Opp SJK C Bukit Beruang,2.24262,102.27766,90014470,http://otp.transitos.io/otpws/api/cities/6/index/stops/1:90014470,0,
90013411,13411,Ins. Lat. Perindustrian Bukit Katil,BA:Ins. Lat. Perindustrian Bukit Katil,2.2402,102.29994,90013411,http://otp.transitos.io/otpws/api/cities/6/index/stops/1:90013411,0,
90013598,13598,Kampung Lereh,BA:Kampung Lereh,2.22338,102.15508,90013598,http://otp.transitos.io/otpws/api/cities/6/index/stops/1:90013598,0,
90013504,13504,Kampung Cheng,BA:Kampung Cheng,2.26316,102.21941,90013504,http://otp.transitos.io/otpws/api/cities/6/index/stops/1:90013504,0,
90013669,13669,Gajah Mati Sungai Petai,BA:Gajah Mati Sungai Petai,2.35233,102.20654,90013669,http://otp.transitos.io/otpws/api/cities/6/index/stops/1:90013669,0,
90013752,13752,Kampung Harmoni,BA:Kampung Harmoni,2.31033,102.26378,90013752,http://otp.transitos.io/otpws/api/cities/6/index/stops/1:90013752,0,
90013580,13580,Opp Balai Polis Batang Tiga,BA:Opp Balai Polis Batang Tiga,2.22027,102.18787,90013580,http://otp.transitos.io/otpws/api/cities/6/index/stops/1:90013580,0,
90013541,13541,Taman Sri Gadong,BA:Taman Sri Gadong,2.22081,102.20517,90013541,http://otp.transitos.io/otpws/api/cities/6/index/stops/1:90013541,0,
90013818,13818,Kampung Gelam,BA:Kampung Gelam,2.2404,102.15966,90013818,http://otp.transitos.io/otpws/api/cities/6/index/stops/1:90013818,0,
90013511,13511,Opp Rumah Seri Kenangan Taman Cheng,BA:Opp Rumah Seri Kenangan Taman Cheng,2.27443,102.21588,90013511,http://otp.transitos.io/otpws/api/cities/6/index/stops/1:90013511,0,
90013578,13578,Paya Luboh 3,BA:Paya Luboh 3,2.24807,102.16033,90013578,http://otp.transitos.io/otpws/api/cities/6/index/stops/1:90013578,0,
90013545,13545,Rumah Awam 2 Pulau Gadong,BA:Rumah Awam 2 Pulau Gadong,2.22921,102.20784,90013545,http://otp.transitos.io/otpws/api/cities/6/index/stops/1:90013545,0,
90013630,13630,Padang Temu,BA:Padang Temu,2.18522,102.27707,90013630,http://otp.transitos.io/otpws/api/cities/6/index/stops/1:90013630,0,
90013604,13604,Medan Selera Pantai Puteri,BA:Medan Selera Pantai Puteri,2.23809,102.14386,90013604,http://otp.transitos.io/otpws/api/cities/6/index/stops/1:90013604,0,
90013783,13783,Pusat Perniagaan Jelatang,BA:Pusat Perniagaan Jelatang,2.38349,102.21591,90013783,http://otp.transitos.io/otpws/api/cities/6/index/stops/1:90013783,0,
90013574,13574,MJ Construction,BA:MJ Construction,2.2597,102.17621,90013574,http://otp.transitos.io/otpws/api/cities/6/index/stops/1:90013574,0,
90013443,13443,Taman Angkasa Nuri,BA:Taman Angkasa Nuri,2.274,102.2477,90013443,http://otp.transitos.io/otpws/api/cities/6/index/stops/1:90013443,0,
90013659,13659,Taman Rembia Cemerlang,BA:Taman Rembia Cemerlang,2.32577,102.21005,90013659,http://otp.transitos.io/otpws/api/cities/6/index/stops/1:90013659,0,
90013963,13963,Opp Kampung Gapam,BA:Opp Kampung Gapam,2.27497,102.32977,90013963,http://otp.transitos.io/otpws/api/cities/6/index/stops/1:90013963,0,
90013601,13601,Taman Pantai Puteri,BA:Taman Pantai Puteri,2.23145,102.14742,90013601,http://otp.transitos.io/otpws/api/cities/6/index/stops/1:90013601,0,
90013375,13375,Opp Mydin MITC,BA:Opp Mydin MITC,2.2706,102.29171,90013375,http://otp.transitos.io/otpws/api/cities/6/index/stops/1:90013375,0,
90013351,13351,Kiara Apartment Taman Mutiara,BA:Kiara Apartment Taman Mutiara,2.23769,102.26043,90013351,http://otp.transitos.io/otpws/api/cities/6/index/stops/1:90013351,0,
90013624,13624,Dataran Pahlawan,BA:Dataran Pahlawan,2.18987,102.25026,90013624,http://otp.transitos.io/otpws/api/cities/6/index/stops/1:90013624,0,
90013814,13814,Taman Bukit Gedong 2,BA:Taman Bukit Gedong 2,2.22919,102.15835,90013814,http://otp.transitos.io/otpws/api/cities/6/index/stops/1:90013814,0,
90013424,13424,Taman Widuri,BA:Taman Widuri,2.22814,102.24206,90013424,http://otp.transitos.io/otpws/api/cities/6/index/stops/1:90013424,0,
90013378,13378,Opp Wisma Negeri,BA:Opp Wisma Negeri,2.27196,102.2891,90013378,http://otp.transitos.io/otpws/api/cities/6/index/stops/1:90013378,0,
90013741,13741,Madrasah Nahdatul Hasanah,BA:Madrasah Nahdatul Hasanah,2.31353,102.29047,90013741,http://otp.transitos.io/otpws/api/cities/6/index/stops/1:90013741,0,
90013781,13781,Opp Pejabat Perikanan Daerah Alor Gajah,BA:Opp Pejabat Perikanan Daerah Alor Gajah,2.38043,102.21848,90013781,http://otp.transitos.io/otpws/api/cities/6/index/stops/1:90013781,0,
90013417,13417,Aeon Bandaraya Melaka,BA:Aeon Bandaraya Melaka,2.21458,102.24802,90013417,http://otp.transitos.io/otpws/api/cities/6/index/stops/1:90013417,0,
90013770,13770,Simpang Jalan Makmur,BA:Simpang Jalan Makmur,2.35013,102.24675,90013770,http://otp.transitos.io/otpws/api/cities/6/index/stops/1:90013770,0,
90013863,13863,Kolej Matrikulasi Melaka,BA:Kolej Matrikulasi Melaka,2.33103,102.08551,90013863,http://otp.transitos.io/otpws/api/cities/6/index/stops/1:90013863,0,
90013595,13595,Kampung Balik Bukit 2,BA:Kampung Balik Bukit 2,2.22012,102.1565,90013595,http://otp.transitos.io/otpws/api/cities/6/index/stops/1:90013595,0,
90014476,14476,Opp Regal Park,BA:Opp Regal Park,2.24973,102.27408,90014476,http://otp.transitos.io/otpws/api/cities/6/index/stops/1:90014476,0,
90013599,13599,Tanjung Samudera,BA:Tanjung Samudera,2.22811,102.14902,90013599,http://otp.transitos.io/otpws/api/cities/6/index/stops/1:90013599,0,
90013985,13985,Terminal Jasin Sentral,BA:Terminal Jasin Sentral,2.31327,102.43113,90013985,http://otp.transitos.io/otpws/api/cities/6/index/stops/1:90013985,0,
90013399,13399,Pantai Hospital Meaka,BA:Pantai Hospital Meaka,2.2371,102.28748,90013399,http://otp.transitos.io/otpws/api/cities/6/index/stops/1:90013399,0,
90013941,13941,SJK (T) Pekan Tebong,BA:SJK (T) Pekan Tebong,2.44083,102.34006,90013941,http://otp.transitos.io/otpws/api/cities/6/index/stops/1:90013941,0,
90013829,13829,Surau Sungai Udang Jaya,BA:Surau Sungai Udang Jaya,2.26885,102.14357,90013829,http://otp.transitos.io/otpws/api/cities/6/index/stops/1:90013829,0,
90013384,13384,UTEM,BA:UTEM,2.3135,102.3199,90013384,http://otp.transitos.io/otpws/api/cities/6/index/stops/1:90013384,0,
90013360,13360,Opp SK Batu Berendam 1,BA:Opp SK Batu Berendam 1,2.24813,102.2556,90013360,http://otp.transitos.io/otpws/api/cities/6/index/stops/1:90013360,0,
90013727,13727,Ampang Steel,BA:Ampang Steel,2.25755,102.29181,90013727,http://otp.transitos.io/otpws/api/cities/6/index/stops/1:90013727,0,
90013537,13537,Taman Melati,BA:Taman Melati,2.21043,102.2129,90013537,http://otp.transitos.io/otpws/api/cities/6/index/stops/1:90013537,0,
90013851,13851,Petronas Masjid Tanah,BA:Petronas Masjid Tanah,2.3475,102.11023,90013851,http://otp.transitos.io/otpws/api/cities/6/index/stops/1:90013851,0,
90013584,13584,Taman Panjang Impian,BA:Taman Panjang Impian,2.22157,102.18122,90013584,http://otp.transitos.io/otpws/api/cities/6/index/stops/1:90013584,0,
90013442,13442,Taman Merdeka Jaya,BA:Taman Merdeka Jaya,2.27131,102.24631,90013442,http://otp.transitos.io/otpws/api/cities/6/index/stops/1:90013442,0,
90013871,13871,Taman Balai Panjang,BA:Taman Balai Panjang,2.23507,102.22437,90013871,http://otp.transitos.io/otpws/api/cities/6/index/stops/1:90013871,0,
90013397,13397,Opp Kompleks Mahkamah Melaka,BA:Opp Kompleks Mahkamah Melaka,2.23489,102.28528,90013397,http://otp.transitos.io/otpws/api/cities/6/index/stops/1:90013397,0,
90013489,13489,Taman Krubong Perdana,BA:Taman Krubong Perdana,2.3278,102.24962,90013489,http://otp.transitos.io/otpws/api/cities/6/index/stops/1:90013489,0,
90013579,13579,PPR Tangga Batu,BA:PPR Tangga Batu,2.2466,102.16162,90013579,http://otp.transitos.io/otpws/api/cities/6/index/stops/1:90013579,0,
90013527,13527,Persatuan Badminton Melaka,BA:Persatuan Badminton Melaka,2.2027,102.23574,90013527,http://otp.transitos.io/otpws/api/cities/6/index/stops/1:90013527,0,
90013821,13821,Balai Raya Tangga Batu,BA:Balai Raya Tangga Batu,2.24931,102.15611,90013821,http://otp.transitos.io/otpws/api/cities/6/index/stops/1:90013821,0,
90013638,13638,Pasar Besar Mbsb,BA:Pasar Besar Mbsb,2.23501,102.24822,90013638,http://otp.transitos.io/otpws/api/cities/6/index/stops/1:90013638,0,
90013382,13382,Mini Malaysia,BA:Mini Malaysia,2.28355,102.30352,90013382,http://otp.transitos.io/otpws/api/cities/6/index/stops/1:90013382,0,
90013354,13354,Opp Taman Mutiara Melaka,BA:Opp Taman Mutiara Melaka,2.24047,102.2589,90013354,http://otp.transitos.io/otpws/api/cities/6/index/stops/1:90013354,0,
90013701,13701,Kampung Pulau Sebang,BA:Kampung Pulau Sebang,2.45275,102.23196,90013701,http://otp.transitos.io/otpws/api/cities/6/index/stops/1:90013701,0,
90013931,13931,SBPI Batang Melaka,BA:SBPI Batang Melaka,2.46381,102.4118,90013931,http://otp.transitos.io/otpws/api/cities/6/index/stops/1:90013931,0,
90013916,13916,Kampung Machap Baru,BA:Kampung Machap Baru,2.3798,102.33066,90013916,http://otp.transitos.io/otpws/api/cities/6/index/stops/1:90013916,0,
90013914,13914,Klinik Kesihatan Machap Baru,BA:Klinik Kesihatan Machap Baru,2.3771,102.33823,90013914,http://otp.transitos.io/otpws/api/cities/6/index/stops/1:90013914,0,
90013764,13764,Masjid Ar Rahman,BA:Masjid Ar Rahman,2.3432,102.25768,90013764,http://otp.transitos.io/otpws/api/cities/6/index/stops/1:90013764,0,
90013548,13548,Taman Bertam Perdana 1,BA:Taman Bertam Perdana 1,2.24046,102.2147,90013548,http://otp.transitos.io/otpws/api/cities/6/index/stops/1:90013548,0,
90013692,13692,Sk Padang Sebang,BA:Sk Padang Sebang,2.42678,102.25009,90013692,http://otp.transitos.io/otpws/api/cities/6/index/stops/1:90013692,0,
90013388,13388,Perbadanan Perpustakaan Awam Melaka,BA:Perbadanan Perpustakaan Awam Melaka,2.21645,102.26958,90013388,http://otp.transitos.io/otpws/api/cities/6/index/stops/1:90013388,0,
90013636,13636,Opp Petronas Bachang,BA:Opp Petronas Bachang,2.23721,102.24699,90013636,http://otp.transitos.io/otpws/api/cities/6/index/stops/1:90013636,0,
90013359,13359,SK Batu Berendam 1,BA:SK Batu Berendam 1,2.24807,102.25553,90013359,http://otp.transitos.io/otpws/api/cities/6/index/stops/1:90013359,0,
90013480,13480,Opp Lt Hardware,BA:Opp Lt Hardware,2.28585,102.24142,90013480,http://otp.transitos.io/otpws/api/cities/6/index/stops/1:90013480,0,
90013654,13654,SK Rumbia,BA:SK Rumbia,2.3173,102.21666,90013654,http://otp.transitos.io/otpws/api/cities/6/index/stops/1:90013654,0,
90013555,13555,Balai Polis Batang Tiga,BA:Balai Polis Batang Tiga,2.22084,102.18733,90013555,http://otp.transitos.io/otpws/api/cities/6/index/stops/1:90013555,0,
90013602,13602,Puteri Qashrina Chalet,BA:Puteri Qashrina Chalet,2.23502,102.14553,90013602,http://otp.transitos.io/otpws/api/cities/6/index/stops/1:90013602,0,
90013434,13434,Kampung Tengah 2,BA:Kampung Tengah 2,2.24859,102.25198,90013434,http://otp.transitos.io/otpws/api/cities/6/index/stops/1:90013434,0,
90013772,13772,Klinik Desa Melaka Pindah,BA:Klinik Desa Melaka Pindah,2.35799,102.22994,90013772,http://otp.transitos.io/otpws/api/cities/6/index/stops/1:90013772,0,
90013903,13903,Kampung Bukit Balai,BA:Kampung Bukit Balai,2.30524,102.26929,90013903,http://otp.transitos.io/otpws/api/cities/6/index/stops/1:90013903,0,
90013358,13358,Opp SK Batu Berendam 2,BA:Opp SK Batu Berendam 2,2.24343,102.25749,90013358,http://otp.transitos.io/otpws/api/cities/6/index/stops/1:90013358,0,
90013729,13729,Opp Dewan Kasturi Ayer Keroh,BA:Opp Dewan Kasturi Ayer Keroh,2.25933,102.29185,90013729,http://otp.transitos.io/otpws/api/cities/6/index/stops/1:90013729,0,
90013699,13699,Kampung Pulau Sebang Selatan 1,BA:Kampung Pulau Sebang Selatan 1,2.44478,102.23504,90013699,http://otp.transitos.io/otpws/api/cities/6/index/stops/1:90013699,0,
90013786,13786,Taman Ind. Kecik & Sederhana Paya Datok,BA:Taman Ind. Kecik & Sederhana Paya Datok,2.3908,102.20604,90013786,http://otp.transitos.io/otpws/api/cities/6/index/stops/1:90013786,0,
90013674,13674,SMK Dato Dol Said,BA:SMK Dato Dol Said,2.37416,102.20784,90013674,http://otp.transitos.io/otpws/api/cities/6/index/stops/1:90013674,0,
90013759,13759,Jalan Bunga Kesuang,BA:Jalan Bunga Kesuang,2.33381,102.26254,90013759,http://otp.transitos.io/otpws/api/cities/6/index/stops/1:90013759,0,
90013702,13702,Taman Mahsuri,BA:Taman Mahsuri,2.45579,102.23155,90013702,http://otp.transitos.io/otpws/api/cities/6/index/stops/1:90013702,0,
90013895,13895,Taman Seri Bayan,BA:Taman Seri Bayan,2.27927,102.26034,90013895,http://otp.transitos.io/otpws/api/cities/6/index/stops/1:90013895,0,
90013957,13957,Opp Seri Negeri,BA:Opp Seri Negeri,2.26515,102.30057,90013957,http://otp.transitos.io/otpws/api/cities/6/index/stops/1:90013957,0,
90013667,13667,Opp Rumah Awam Sungai Petai,BA:Opp Rumah Awam Sungai Petai,2.34649,102.20505,90013667,http://otp.transitos.io/otpws/api/cities/6/index/stops/1:90013667,0,
90013964,13964,Kampung Gapam,BA:Kampung Gapam,2.27523,102.33066,90013964,http://otp.transitos.io/otpws/api/cities/6/index/stops/1:90013964,0,
90013749,13749,Jalan Pulau Melaka,BA:Jalan Pulau Melaka,2.31215,102.27268,90013749,http://otp.transitos.io/otpws/api/cities/6/index/stops/1:90013749,0,
90013448,13448,Taman Mas Merah,BA:Taman Mas Merah,2.26493,102.25462,90013448,http://otp.transitos.io/otpws/api/cities/6/index/stops/1:90013448,0,
90013517,13517,Bertam Ulu Batu 10,BA:Bertam Ulu Batu 10,2.2916,102.18273,90013517,http://otp.transitos.io/otpws/api/cities/6/index/stops/1:90013517,0,
90013965,13965,Anjung Gapam,BA:Anjung Gapam,2.27487,102.36219,90013965,http://otp.transitos.io/otpws/api/cities/6/index/stops/1:90013965,0,
90013843,13843,Kem Masjid Tanah,BA:Kem Masjid Tanah,2.32258,102.13235,90013843,http://otp.transitos.io/otpws/api/cities/6/index/stops/1:90013843,0,
90013862,13862,Taman Bidara Indah,BA:Taman Bidara Indah,2.33498,102.08735,90013862,http://otp.transitos.io/otpws/api/cities/6/index/stops/1:90013862,0,
90013649,13649,Taman Paya Rumput Indah,BA:Taman Paya Rumput Indah,2.29962,102.21635,90013649,http://otp.transitos.io/otpws/api/cities/6/index/stops/1:90013649,0,
90013835,13835,Plaza Sungai Udang,BA:Plaza Sungai Udang,2.28456,102.13425,90013835,http://otp.transitos.io/otpws/api/cities/6/index/stops/1:90013835,0,
90013572,13572,Klinik Kesihatan Bukit Rambai,BA:Klinik Kesihatan Bukit Rambai,2.25471,102.18017,90013572,http://otp.transitos.io/otpws/api/cities/6/index/stops/1:90013572,0,
90013784,13784,Opp Hospital Alor Gajah Luar,BA:Opp Hospital Alor Gajah Luar,2.39574,102.20358,90013784,http://otp.transitos.io/otpws/api/cities/6/index/stops/1:90013784,0,
90013498,13498,SK Malim,BA:SK Malim,2.25058,102.2229,90013498,http://otp.transitos.io/otpws/api/cities/6/index/stops/1:90013498,0,
90013968,13968,SK Sri Bemban,BA:SK Sri Bemban,2.26954,102.37468,90013968,http://otp.transitos.io/otpws/api/cities/6/index/stops/1:90013968,0,
90013828,13828,Kampung Bukit Salleh,BA:Kampung Bukit Salleh,2.26332,102.14662,90013828,http://otp.transitos.io/otpws/api/cities/6/index/stops/1:90013828,0,
90013589,13589,Kampung Tanjung Kling,BA:Kampung Tanjung Kling,2.2217,102.16488,90013589,http://otp.transitos.io/otpws/api/cities/6/index/stops/1:90013589,0,
90013684,13684,Ayer Panas Gadek,BA:Ayer Panas Gadek,2.40799,102.23896,90013684,http://otp.transitos.io/otpws/api/cities/6/index/stops/1:90013684,0,
90013874,13874,Rumah Awam Bertam Malim,BA:Rumah Awam Bertam Malim,2.24355,102.22322,90013874,http://otp.transitos.io/otpws/api/cities/6/index/stops/1:90013874,0,
90013381,13381,Zoo Melaka,BA:Zoo Melaka,2.27595,102.29807,90013381,http://otp.transitos.io/otpws/api/cities/6/index/stops/1:90013381,0,
90013872,13872,SJK (C) Malim Melaka,BA:SJK (C) Malim Melaka,2.23872,102.22456,90013872,http://otp.transitos.io/otpws/api/cities/6/index/stops/1:90013872,0,
90013769,13769,Taman Sri Tuah,BA:Taman Sri Tuah,2.34631,102.25142,90013769,http://otp.transitos.io/otpws/api/cities/6/index/stops/1:90013769,0,
90013873,13873,Opp SJK (C) Malim Melaka,BA:Opp SJK (C) Malim Melaka,2.23869,102.22447,90013873,http://otp.transitos.io/otpws/api/cities/6/index/stops/1:90013873,0,
90013987,13987,Masjid At Taqwa Kampung Rim,BA:Masjid At Taqwa Kampung Rim,2.31131,102.44062,90013987,http://otp.transitos.io/otpws/api/cities/6/index/stops/1:90013987,0,
90013731,13731,Opp Mydin Ayer Keroh,BA:Opp Mydin Ayer Keroh,2.26837,102.29307,90013731,http://otp.transitos.io/otpws/api/cities/6/index/stops/1:90013731,0,
90014474,14474,Taman Kerjasama,BA:Taman Kerjasama,2.24519,102.27153,90014474,http://otp.transitos.io/otpws/api/cities/6/index/stops/1:90014474,0,
90013972,13972,Kampung Bemban,BA:Kampung Bemban,2.28377,102.37463,90013972,http://otp.transitos.io/otpws/api/cities/6/index/stops/1:90013972,0,
90014471,14471,SJK C Bukit Beruang,BA:SJK C Bukit Beruang,2.24262,102.27774,90014471,http://otp.transitos.io/otpws/api/cities/6/index/stops/1:90014471,0,
90013641,13641,Taman Paya Rumput Bistari,BA:Taman Paya Rumput Bistari,2.28457,102.21451,90013641,http://otp.transitos.io/otpws/api/cities/6/index/stops/1:90013641,0,
90013832,13832,Retoran Cahaya Bugis,BA:Retoran Cahaya Bugis,2.28067,102.13562,90013832,http://otp.transitos.io/otpws/api/cities/6/index/stops/1:90013832,0,
90013800,13800,Klinik Desa Melekek,BA:Klinik Desa Melekek,2.43026,102.187,90013800,http://otp.transitos.io/otpws/api/cities/6/index/stops/1:90013800,0,
90013703,13703,Kampung Pulau Sebang Utara,BA:Kampung Pulau Sebang Utara,2.45483,102.23174,90013703,http://otp.transitos.io/otpws/api/cities/6/index/stops/1:90013703,0,
90013820,13820,Pusat Kegiatan Masyarakat Tangga Batu,BA:Pusat Kegiatan Masyarakat Tangga Batu,2.24711,102.1579,90013820,http://otp.transitos.io/otpws/api/cities/6/index/stops/1:90013820,0,
90013355,13355,Taman Ara,BA:Taman Ara,2.24679,102.25638,90013355,http://otp.transitos.io/otpws/api/cities/6/index/stops/1:90013355,0,
90013415,13415,Opp Lotus Melaka,BA:Opp Lotus Melaka,2.21665,102.2481,90013415,http://otp.transitos.io/otpws/api/cities/6/index/stops/1:90013415,0,
90014480,14480,Opp Kolej Komuniti Bukit Berung,BA:Opp Kolej Komuniti Bukit Berung,2.25605,102.27835,90014480,http://otp.transitos.io/otpws/api/cities/6/index/stops/1:90014480,0,
90013556,13556,Taman Muhibbah,BA:Taman Muhibbah,2.21991,102.18982,90013556,http://otp.transitos.io/otpws/api/cities/6/index/stops/1:90013556,0,
90013970,13970,SMK Seri Bemban,BA:SMK Seri Bemban,2.27211,102.37683,90013970,http://otp.transitos.io/otpws/api/cities/6/index/stops/1:90013970,0,
90013793,13793,Opp Surau Kampung Solok Sinda Paya Datok,BA:Opp Surau Kampung Solok Sinda Paya Datok,2.41043,102.19513,90013793,http://otp.transitos.io/otpws/api/cities/6/index/stops/1:90013793,0,
90013619,13619,Hotel Orkid,BA:Hotel Orkid,2.20096,102.25278,90013619,http://otp.transitos.io/otpws/api/cities/6/index/stops/1:90013619,0,
90014483,14483,Kampung Pengkalan Batu,BA:Kampung Pengkalan Batu,2.23354,102.26684,90014483,http://otp.transitos.io/otpws/api/cities/6/index/stops/1:90014483,0,
90013853,13853,SK Bukit Beringin,BA:SK Bukit Beringin,2.35247,102.09921,90013853,http://otp.transitos.io/otpws/api/cities/6/index/stops/1:90013853,0,
90013934,13934,Hab Batang Melaka,BA:Hab Batang Melaka,2.47411,102.41833,90013934,http://otp.transitos.io/otpws/api/cities/6/index/stops/1:90013934,0,
90013904,13904,Kampung Gangsa,BA:Kampung Gangsa,2.30429,102.26831,90013904,http://otp.transitos.io/otpws/api/cities/6/index/stops/1:90013904,0,
90013453,13453,Taman Mekar,BA:Taman Mekar,2.2709,102.25799,90013453,http://otp.transitos.io/otpws/api/cities/6/index/stops/1:90013453,0,
90013876,13876,Klinik Desa Belimbing,BA:Klinik Desa Belimbing,2.31838,102.2592,90013876,http://otp.transitos.io/otpws/api/cities/6/index/stops/1:90013876,0,
90013960,13960,Taman Hang Tuah,BA:Taman Hang Tuah,2.26743,102.30652,90013960,http://otp.transitos.io/otpws/api/cities/6/index/stops/1:90013960,0,
90013600,13600,Medan Selera Pantai Rombang,BA:Medan Selera Pantai Rombang,2.22975,102.14824,90013600,http://otp.transitos.io/otpws/api/cities/6/index/stops/1:90013600,0,
90014013,14013,Taman Gunung Asahan,BA:Taman Gunung Asahan,2.39509,102.55097,90014013,http://otp.transitos.io/otpws/api/cities/6/index/stops/1:90014013,0,
90014478,14478,MMU Melaka,BA:MMU Melaka,2.25233,102.27595,90014478,http://otp.transitos.io/otpws/api/cities/6/index/stops/1:90014478,0,
90013946,13946,Klinik Desa Tebong,BA:Klinik Desa Tebong,2.45471,102.34043,90013946,http://otp.transitos.io/otpws/api/cities/6/index/stops/1:90013946,0,
90013352,13352,Opp Kiara Apartment Taman Mutiara,BA:Opp Kiara Apartment Taman Mutiara,2.2376,102.26036,90013352,http://otp.transitos.io/otpws/api/cities/6/index/stops/1:90013352,0,
90013563,13563,Rumah Awam Bukit Rambai,BA:Rumah Awam Bukit Rambai,2.24607,102.1922,90013563,http://otp.transitos.io/otpws/api/cities/6/index/stops/1:90013563,0,
90013937,13937,Taman Negeri Melaka,BA:Taman Negeri Melaka,2.41167,102.34733,90013937,http://otp.transitos.io/otpws/api/cities/6/index/stops/1:90013937,0,
90013736,13736,Pintu Gerbang Melaka,BA:Pintu Gerbang Melaka,2.28765,102.30424,90013736,http://otp.transitos.io/otpws/api/cities/6/index/stops/1:90013736,0,
90013967,13967,Masjid Nurul Iman,BA:Masjid Nurul Iman,2.27291,102.36701,90013967,http://otp.transitos.io/otpws/api/cities/6/index/stops/1:90013967,0,
90013929,13929,Kampung Jus,BA:Kampung Jus,2.42521,102.39841,90013929,http://otp.transitos.io/otpws/api/cities/6/index/stops/1:90013929,0,
90013966,13966,Durable Farm & Resort Bemban,BA:Durable Farm & Resort Bemban,2.27601,102.35444,90013966,http://otp.transitos.io/otpws/api/cities/6/index/stops/1:90013966,0,
90007918,7918,Melaka Sentral,Jalan Sentral- Melaka Melaka- Malaysia Melaka- Malaysia,2.22045,102.2507,90007918,http://otp.transitos.io/otpws/api/cities/6/index/stops/1:90007918,0,
90013696,13696,SM Arab Al Asyraf,BA:SM Arab Al Asyraf,2.4388,102.241,90013696,http://otp.transitos.io/otpws/api/cities/6/index/stops/1:90013696,0,
90013671,13671,Opp Sk Sungai Petai,BA:Opp Sk Sungai Petai,2.35462,102.20904,90013671,http://otp.transitos.io/otpws/api/cities/6/index/stops/1:90013671,0,
90013676,13676,Kampung Kelemak,BA:Kampung Kelemak,2.37681,102.20923,90013676,http://otp.transitos.io/otpws/api/cities/6/index/stops/1:90013676,0,
90013805,13805,Tanah Perkuburan Islam Taboh Naning,BA:Tanah Perkuburan Islam Taboh Naning,2.45311,102.18108,90013805,http://otp.transitos.io/otpws/api/cities/6/index/stops/1:90013805,0,
90013366,13366,Opp Taman Beringin Melaka,BA:Opp Taman Beringin Melaka,2.257,102.25997,90013366,http://otp.transitos.io/otpws/api/cities/6/index/stops/1:90013366,0,
90013450,13450,Opp Airport Fire And Rescue,BA:Opp Airport Fire And Rescue,2.26219,102.25394,90013450,http://otp.transitos.io/otpws/api/cities/6/index/stops/1:90013450,0,
90013664,13664,Opp Taman Sungai Petai Bahagia,BA:Opp Taman Sungai Petai Bahagia,2.338,102.20956,90013664,http://otp.transitos.io/otpws/api/cities/6/index/stops/1:90013664,0,
90013776,13776,Masjid Ubaidah Melaka,BA:Masjid Ubaidah Melaka,2.36171,102.22828,90013776,http://otp.transitos.io/otpws/api/cities/6/index/stops/1:90013776,0,
90013861,13861,Jalan Hamid Othman,BA:Jalan Hamid Othman,2.3386,102.08863,90013861,http://otp.transitos.io/otpws/api/cities/6/index/stops/1:90013861,0,
90013807,13807,Rumah Asam Pedas Melaka,BA:Rumah Asam Pedas Melaka,2.45791,102.17955,90013807,http://otp.transitos.io/otpws/api/cities/6/index/stops/1:90013807,0,
90013655,13655,Opp SK Rumbia,BA:Opp SK Rumbia,2.31744,102.21679,90013655,http://otp.transitos.io/otpws/api/cities/6/index/stops/1:90013655,0,
90013777,13777,Kampung Balai,BA:Kampung Balai,2.36585,102.22358,90013777,http://otp.transitos.io/otpws/api/cities/6/index/stops/1:90013777,0,
90013768,13768,Kampung Pachor,BA:Kampung Pachor,2.34989,102.24845,90013768,http://otp.transitos.io/otpws/api/cities/6/index/stops/1:90013768,0,
90013568,13568,Kampung Paya Mengkuang Melaka,BA:Kampung Paya Mengkuang Melaka,2.25151,102.18472,90013568,http://otp.transitos.io/otpws/api/cities/6/index/stops/1:90013568,0,
90013734,13734,Opp Galeri Lebah Melaka,BA:Opp Galeri Lebah Melaka,2.27923,102.3003,90013734,http://otp.transitos.io/otpws/api/cities/6/index/stops/1:90013734,0,
90013855,13855,Kampung Londang Batu 19,BA:Kampung Londang Batu 19,2.34885,102.09491,90013855,http://otp.transitos.io/otpws/api/cities/6/index/stops/1:90013855,0,
90013484,13484,Taman 1 Krubong,BA:Taman 1 Krubong,2.30361,102.2528,90013484,http://otp.transitos.io/otpws/api/cities/6/index/stops/1:90013484,0,
90013748,13748,Taman Cempaka 3,BA:Taman Cempaka 3,2.31428,102.27752,90013748,http://otp.transitos.io/otpws/api/cities/6/index/stops/1:90013748,0,
90013466,13466,Opp Taman Bertam Mutiara,BA:Opp Taman Bertam Mutiara,2.24583,102.23409,90013466,http://otp.transitos.io/otpws/api/cities/6/index/stops/1:90013466,0,
90013462,13462,Pasar Malim Jaya,BA:Pasar Malim Jaya,2.23891,102.23369,90013462,http://otp.transitos.io/otpws/api/cities/6/index/stops/1:90013462,0,
90013688,13688,Taman Bukit Nangka,BA:Taman Bukit Nangka,2.41594,102.24829,90013688,http://otp.transitos.io/otpws/api/cities/6/index/stops/1:90013688,0,
90013894,13894,Taman Seri Daya,BA:Taman Seri Daya,2.25521,102.25394,90013894,http://otp.transitos.io/otpws/api/cities/6/index/stops/1:90013894,0,
90013763,13763,Kampung Parit Melaka,BA:Kampung Parit Melaka,2.34113,102.26268,90013763,http://otp.transitos.io/otpws/api/cities/6/index/stops/1:90013763,0,
90013363,13363,SMK Tun Mahathir,BA:SMK Tun Mahathir,2.25601,102.25664,90013363,http://otp.transitos.io/otpws/api/cities/6/index/stops/1:90013363,0,
90013686,13686,Ladang Kemuning,BA:Ladang Kemuning,2.41167,102.24221,90013686,http://otp.transitos.io/otpws/api/cities/6/index/stops/1:90013686,0,
90013723,13723,Opp Rumah Pangsa Murni,BA:Opp Rumah Pangsa Murni,2.25103,102.29176,90013723,http://otp.transitos.io/otpws/api/cities/6/index/stops/1:90013723,0,
90013516,13516,Taman Bertam Indah,BA:Taman Bertam Indah,2.2827,102.19687,90013516,http://otp.transitos.io/otpws/api/cities/6/index/stops/1:90013516,0,
90013436,13436,Klinik Desa Batu Beremdam,BA:Klinik Desa Batu Beremdam,2.24981,102.25178,90013436,http://otp.transitos.io/otpws/api/cities/6/index/stops/1:90013436,0,
90013742,13742,Poliklinik Durian Tunggal,BA:Poliklinik Durian Tunggal,2.3124,102.28494,90013742,http://otp.transitos.io/otpws/api/cities/6/index/stops/1:90013742,0,
90013803,13803,Sultan Salai,BA:Sultan Salai,2.44922,102.18173,90013803,http://otp.transitos.io/otpws/api/cities/6/index/stops/1:90013803,0,
90013765,13765,Kampung Beringin,BA:Kampung Beringin,2.34109,102.25962,90013765,http://otp.transitos.io/otpws/api/cities/6/index/stops/1:90013765,0,
90014466,14466,Pantai Hospital Melaka 2,BA:Pantai Hospital Melaka 2,2.23844,102.28698,90014466,http://otp.transitos.io/otpws/api/cities/6/index/stops/1:90014466,0,
90013356,13356,Opp Taman Ara,BA:Opp Taman Ara,2.24676,102.25629,90013356,http://otp.transitos.io/otpws/api/cities/6/index/stops/1:90013356,0,
90013550,13550,Taman Mayfair,BA:Taman Mayfair,2.21808,102.19827,90013550,http://otp.transitos.io/otpws/api/cities/6/index/stops/1:90013550,0,
90013860,13860,SRA Londang,BA:SRA Londang,2.3394,102.08916,90013860,http://otp.transitos.io/otpws/api/cities/6/index/stops/1:90013860,0,
90013446,13446,Opp Taman Mekar,BA:Opp Taman Mekar,2.27096,102.25794,90013446,http://otp.transitos.io/otpws/api/cities/6/index/stops/1:90013446,0,
90013716,13716,Taman Sentosa Melaka,BA:Taman Sentosa Melaka,2.23042,102.27573,90013716,http://otp.transitos.io/otpws/api/cities/6/index/stops/1:90013716,0,
90013391,13391,Kampung Bukit Baru Dalam,BA:Kampung Bukit Baru Dalam,2.21901,102.27432,90013391,http://otp.transitos.io/otpws/api/cities/6/index/stops/1:90013391,0,
90013496,13496,Taman Bertam Malim,BA:Taman Bertam Malim,2.24796,102.22297,90013496,http://otp.transitos.io/otpws/api/cities/6/index/stops/1:90013496,0,
90013656,13656,Taman Rembia Perkasa,BA:Taman Rembia Perkasa,2.32264,102.21366,90013656,http://otp.transitos.io/otpws/api/cities/6/index/stops/1:90013656,0,
90013758,13758,Kampung Bunga Mawar,BA:Kampung Bunga Mawar,2.33045,102.26208,90013758,http://otp.transitos.io/otpws/api/cities/6/index/stops/1:90013758,0,
90013830,13830,Bilik Gerakan Tangga Batu,BA:Bilik Gerakan Tangga Batu,2.27316,102.14246,90013830,http://otp.transitos.io/otpws/api/cities/6/index/stops/1:90013830,0,
90013491,13491,Taman Inang Sari,BA:Taman Inang Sari,2.33423,102.25168,90013491,http://otp.transitos.io/otpws/api/cities/6/index/stops/1:90013491,0,
90012965,12965,Aeon Ayer Keroh,BA:Aeon Ayer Keroh,2.23296,102.28259,90012965,http://otp.transitos.io/otpws/api/cities/6/index/stops/1:90012965,0,
90014001,14001,Simpang Parit Keliling,BA:Simpang Parit Keliling,2.35308,102.50995,90014001,http://otp.transitos.io/otpws/api/cities/6/index/stops/1:90014001,0,
90013949,13949,Taman Seri Hilir,BA:Taman Seri Hilir,2.46368,102.37861,90013949,http://otp.transitos.io/otpws/api/cities/6/index/stops/1:90013949,0,
90013412,13412,SK Kg Tun Razak,BA:SK Kg Tun Razak,2.24323,102.30957,90013412,http://otp.transitos.io/otpws/api/cities/6/index/stops/1:90013412,0,
90013530,13530,SMK (P) Methodist,BA:SMK (P) Methodist,2.20346,102.23385,90013530,http://otp.transitos.io/otpws/api/cities/6/index/stops/1:90013530,0,
90013613,13613,Taman Saujana Seksyen 2,BA:Taman Saujana Seksyen 2,2.23711,102.30193,90013613,http://otp.transitos.io/otpws/api/cities/6/index/stops/1:90013613,0,
90013816,13816,SMK Kampung Gelam,BA:SMK Kampung Gelam,2.23315,102.16004,90013816,http://otp.transitos.io/otpws/api/cities/6/index/stops/1:90013816,0,
90013457,13457,Taman Malim Indah,BA:Taman Malim Indah,2.22439,102.23227,90013457,http://otp.transitos.io/otpws/api/cities/6/index/stops/1:90013457,0,
90013444,13444,Opp Taman Angkasa Nuri,BA:Opp Taman Angkasa Nuri,2.27384,102.24772,90013444,http://otp.transitos.io/otpws/api/cities/6/index/stops/1:90013444,0,
90013393,13393,Balai Polis Bukit Baru,BA:Balai Polis Bukit Baru,2.22462,102.27636,90013393,http://otp.transitos.io/otpws/api/cities/6/index/stops/1:90013393,0,
90013779,13779,Rumah Awam Seri Pengkalan,BA:Rumah Awam Seri Pengkalan,2.3728,102.22186,90013779,http://otp.transitos.io/otpws/api/cities/6/index/stops/1:90013779,0,
90013920,13920,Klinik Kesihatan Selandar,BA:Klinik Kesihatan Selandar,2.38754,102.37253,90013920,http://otp.transitos.io/otpws/api/cities/6/index/stops/1:90013920,0,
90013744,13744,Medan Selera Durian Tunggal,BA:Medan Selera Durian Tunggal,2.312,102.28298,90013744,http://otp.transitos.io/otpws/api/cities/6/index/stops/1:90013744,0,
90013928,13928,Empangan Jus,BA:Empangan Jus,2.45288,102.40832,90013928,http://otp.transitos.io/otpws/api/cities/6/index/stops/1:90013928,0,
90013410,13410,Kampung Desa Tersusun,BA:Kampung Desa Tersusun,2.24414,102.30006,90013410,http://otp.transitos.io/otpws/api/cities/6/index/stops/1:90013410,0,
90014479,14479,Kolej Komuniti Bukit Berung,BA:Kolej Komuniti Bukit Berung,2.25602,102.27841,90014479,http://otp.transitos.io/otpws/api/cities/6/index/stops/1:90014479,0,
90013809,13809,UniKL Melaka,BA:UniKL Melaka,2.45684,102.17099,90013809,http://otp.transitos.io/otpws/api/cities/6/index/stops/1:90013809,0,
90013459,13459,Balai Panjang,BA:Balai Panjang,2.22659,102.23037,90013459,http://otp.transitos.io/otpws/api/cities/6/index/stops/1:90013459,0,
90013639,13639,Taman Pasir Puteh/Lorong Haji Salleh,BA:Taman Pasir Puteh/Lorong Haji Salleh,2.23456,102.24269,90013639,http://otp.transitos.io/otpws/api/cities/6/index/stops/1:90013639,0,
90013522,13522,Melaka International School,BA:Melaka International School,2.19766,102.24431,90013522,http://otp.transitos.io/otpws/api/cities/6/index/stops/1:90013522,0,
90013943,13943,Kampung Tebong Km24,BA:Kampung Tebong Km24,2.44534,102.3423,90013943,http://otp.transitos.io/otpws/api/cities/6/index/stops/1:90013943,0,
90013753,13753,Kampung Bunga Kertas,BA:Kampung Bunga Kertas,2.31221,102.26057,90013753,http://otp.transitos.io/otpws/api/cities/6/index/stops/1:90013753,0,
90013543,13543,Taman Pulau Gadong Jaya,BA:Taman Pulau Gadong Jaya,2.22792,102.20736,90013543,http://otp.transitos.io/otpws/api/cities/6/index/stops/1:90013543,0,
90013948,13948,Balai Polis Tebong,BA:Balai Polis Tebong,2.46441,102.3438,90013948,http://otp.transitos.io/otpws/api/cities/6/index/stops/1:90013948,0,
90013524,13524,SMK Gajah Berang,BA:SMK Gajah Berang,2.20256,102.24108,90013524,http://otp.transitos.io/otpws/api/cities/6/index/stops/1:90013524,0,
90013746,13746,Taman Cempaka 2,BA:Taman Cempaka 2,2.31446,102.2805,90013746,http://otp.transitos.io/otpws/api/cities/6/index/stops/1:90013746,0,
90013413,13413,Opp SK Kg Tun Razakk,BA:Opp SK Kg Tun Razakk,2.24298,102.31028,90013413,http://otp.transitos.io/otpws/api/cities/6/index/stops/1:90013413,0,
90013379,13379,MITC,BA:MITC,2.27156,102.28601,90013379,http://otp.transitos.io/otpws/api/cities/6/index/stops/1:90013379,0,
90013913,13913,Kampung Simpang Garing,BA:Kampung Simpang Garing,2.33054,102.31252,90013913,http://otp.transitos.io/otpws/api/cities/6/index/stops/1:90013913,0,
90013485,13485,Opp Taman 1 Krubong,BA:Opp Taman 1 Krubong,2.30367,102.25293,90013485,http://otp.transitos.io/otpws/api/cities/6/index/stops/1:90013485,0,
90013831,13831,SK Sungai Udang,BA:SK Sungai Udang,2.27728,102.13959,90013831,http://otp.transitos.io/otpws/api/cities/6/index/stops/1:90013831,0,
90013483,13483,Opp Taman Krubong Indah,BA:Opp Taman Krubong Indah,2.29631,102.24719,90013483,http://otp.transitos.io/otpws/api/cities/6/index/stops/1:90013483,0,
90013400,13400,Taman Baru Bukit Katil,BA:Taman Baru Bukit Katil,2.23242,102.29069,90013400,http://otp.transitos.io/otpws/api/cities/6/index/stops/1:90013400,0,
90013810,13810,ADTEC Melaka,BA:ADTEC Melaka,2.45652,102.16932,90013810,http://otp.transitos.io/otpws/api/cities/6/index/stops/1:90013810,0,
90013420,13420,Plaza Hang Tuah 2,BA:Plaza Hang Tuah 2,2.20299,102.24803,90013420,http://otp.transitos.io/otpws/api/cities/6/index/stops/1:90013420,0,
90013634,13634,CIMB Taman Kota Laksamana,BA:CIMB Taman Kota Laksamana,2.19526,102.23791,90013634,http://otp.transitos.io/otpws/api/cities/6/index/stops/1:90013634,0,
90013576,13576,Taman Pizza Idaman,BA:Taman Pizza Idaman,2.25768,102.16985,90013576,http://otp.transitos.io/otpws/api/cities/6/index/stops/1:90013576,0,
90013467,13467,Taman Bertam Mutiara,BA:Taman Bertam Mutiara,2.24577,102.23402,90013467,http://otp.transitos.io/otpws/api/cities/6/index/stops/1:90013467,0,
90013730,13730,Dewan Kasturi Ayer Keroh,BA:Dewan Kasturi Ayer Keroh,2.25927,102.29173,90013730,http://otp.transitos.io/otpws/api/cities/6/index/stops/1:90013730,0,
90013705,13705,Opp Desa Pulau Sebang,BA:Opp Desa Pulau Sebang,2.45741,102.23104,90013705,http://otp.transitos.io/otpws/api/cities/6/index/stops/1:90013705,0,
90013348,13348,Opp Sirim Melaka,BA:Opp Sirim Melaka,2.22818,102.26185,90013348,http://otp.transitos.io/otpws/api/cities/6/index/stops/1:90013348,0,
90013681,13681,Jalan Haji Mat Top,BA:Jalan Haji Mat Top,2.40102,102.23796,90013681,http://otp.transitos.io/otpws/api/cities/6/index/stops/1:90013681,0,
90013609,13609,Jalan Solok Haji Othman,BA:Jalan Solok Haji Othman,2.25427,102.1413,90013609,http://otp.transitos.io/otpws/api/cities/6/index/stops/1:90013609,0,
90013995,13995,Pondak Polis Chabau,BA:Pondak Polis Chabau,2.33388,102.50516,90013995,http://otp.transitos.io/otpws/api/cities/6/index/stops/1:90013995,0,
90014477,14477,Opp MMU Melaka,BA:Opp MMU Melaka,2.25195,102.27552,90014477,http://otp.transitos.io/otpws/api/cities/6/index/stops/1:90014477,0,
90013980,13980,Kampung Ayer Perah,BA:Kampung Ayer Perah,2.31514,102.40902,90013980,http://otp.transitos.io/otpws/api/cities/6/index/stops/1:90013980,0,
90013893,13893,Opp Taman Seri Daya,BA:Opp Taman Seri Daya,2.25525,102.25403,90013893,http://otp.transitos.io/otpws/api/cities/6/index/stops/1:90013893,0,
90014010,14010,Kampung Bukit Asahan,BA:Kampung Bukit Asahan,2.38833,102.53766,90014010,http://otp.transitos.io/otpws/api/cities/6/index/stops/1:90014010,0,
90013981,13981,Kampung Ayer Perah 2,BA:Kampung Ayer Perah 2,2.31339,102.41021,90013981,http://otp.transitos.io/otpws/api/cities/6/index/stops/1:90013981,0,
90013707,13707,Mydin Pulau Sebang,BA:Mydin Pulau Sebang,2.462,102.23112,90013707,http://otp.transitos.io/otpws/api/cities/6/index/stops/1:90013707,0,
90013896,13896,Opp Taman Seri Bayan,BA:Opp Taman Seri Bayan,2.27923,102.2604,90013896,http://otp.transitos.io/otpws/api/cities/6/index/stops/1:90013896,0,
90013551,13551,Taman Kenanga,BA:Taman Kenanga,2.218,102.20077,90013551,http://otp.transitos.io/otpws/api/cities/6/index/stops/1:90013551,0,
90013750,13750,Kampung Tengah Durian Tunggal,BA:Kampung Tengah Durian Tunggal,2.31152,102.27007,90013750,http://otp.transitos.io/otpws/api/cities/6/index/stops/1:90013750,0,
90013926,13926,Taman Jus Perdana,BA:Taman Jus Perdana,2.40301,102.38519,90013926,http://otp.transitos.io/otpws/api/cities/6/index/stops/1:90013926,0,
90013990,13990,Kastu Car Wash Taman Rim,BA:Kastu Car Wash Taman Rim,2.31509,102.45154,90013990,http://otp.transitos.io/otpws/api/cities/6/index/stops/1:90013990,0,
90013792,13792,Balai Raya JPKK Kampung Paya Datok,BA:Balai Raya JPKK Kampung Paya Datok,2.40476,102.19786,90013792,http://otp.transitos.io/otpws/api/cities/6/index/stops/1:90013792,0,
90013505,13505,Opp Taman Cheng Permai,BA:Opp Taman Cheng Permai,2.26682,102.2177,90013505,http://otp.transitos.io/otpws/api/cities/6/index/stops/1:90013505,0,
90013377,13377,Wisma Negeri,BA:Wisma Negeri,2.27186,102.28909,90013377,http://otp.transitos.io/otpws/api/cities/6/index/stops/1:90013377,0,
90013956,13956,Opp World Youth Foundation,BA:Opp World Youth Foundation,2.26864,102.2956,90013956,http://otp.transitos.io/otpws/api/cities/6/index/stops/1:90013956,0,
90013644,13644,Taman Seri Paya Rumput,BA:Taman Seri Paya Rumput,2.28991,102.21311,90013644,http://otp.transitos.io/otpws/api/cities/6/index/stops/1:90013644,0,
90013898,13898,Taman Gangsa,BA:Taman Gangsa,2.28106,102.2617,90013898,http://otp.transitos.io/otpws/api/cities/6/index/stops/1:90013898,0,
90013435,13435,Lapangan Terbang Antarabangsa Melaka,BA:Lapangan Terbang Antarabangsa Melaka,2.25546,102.25095,90013435,http://otp.transitos.io/otpws/api/cities/6/index/stops/1:90013435,0,
90013514,13514,Balai Raya Kampung Cheng,BA:Balai Raya Kampung Cheng,2.27836,102.21496,90013514,http://otp.transitos.io/otpws/api/cities/6/index/stops/1:90013514,0,
90013567,13567,Taman Rambai Mesra,BA:Taman Rambai Mesra,2.25075,102.18552,90013567,http://otp.transitos.io/otpws/api/cities/6/index/stops/1:90013567,0,
90013909,13909,Kampung Padang Kerbau,BA:Kampung Padang Kerbau,2.31985,102.28742,90013909,http://otp.transitos.io/otpws/api/cities/6/index/stops/1:90013909,0,
90013799,13799,Opp Klinik Desa Melekek,BA:Opp Klinik Desa Melekek,2.43035,102.18711,90013799,http://otp.transitos.io/otpws/api/cities/6/index/stops/1:90013799,0,
90013865,13865,Taman Perindustrian Masjid Tanah,BA:Taman Perindustrian Masjid Tanah,2.32613,102.08205,90013865,http://otp.transitos.io/otpws/api/cities/6/index/stops/1:90013865,0,
90013856,13856,Kampung Londang 2,BA:Kampung Londang 2,2.34697,102.09382,90013856,http://otp.transitos.io/otpws/api/cities/6/index/stops/1:90013856,0,
90013910,13910,LTK,BA:LTK,2.32775,102.30098,90013910,http://otp.transitos.io/otpws/api/cities/6/index/stops/1:90013910,0,
90013826,13826,Kampung Paya Rumput Jaya,BA:Kampung Paya Rumput Jaya,2.26218,102.14968,90013826,http://otp.transitos.io/otpws/api/cities/6/index/stops/1:90013826,0,
90013666,13666,Rumah Awam Sungai Petai,BA:Rumah Awam Sungai Petai,2.34644,102.20519,90013666,http://otp.transitos.io/otpws/api/cities/6/index/stops/1:90013666,0,
90013471,13471,Taman Teknologi Cheng,BA:Taman Teknologi Cheng,2.25732,102.23096,90013471,http://otp.transitos.io/otpws/api/cities/6/index/stops/1:90013471,0,
90013839,13839,Opp SMK Sungai Udang,BA:Opp SMK Sungai Udang,2.29451,102.13381,90013839,http://otp.transitos.io/otpws/api/cities/6/index/stops/1:90013839,0,
90013740,13740,Taman Kenari Jaya,BA:Taman Kenari Jaya,2.31301,102.29183,90013740,http://otp.transitos.io/otpws/api/cities/6/index/stops/1:90013740,0,
90013900,13900,Sra Gangsa,BA:Sra Gangsa,2.28362,102.2625,90013900,http://otp.transitos.io/otpws/api/cities/6/index/stops/1:90013900,0,
90014472,14472,Opp Taman Faridah,BA:Opp Taman Faridah,2.24662,102.27503,90014472,http://otp.transitos.io/otpws/api/cities/6/index/stops/1:90014472,0,
90013921,13921,Kampung Desa Mesra Sedanan,BA:Kampung Desa Mesra Sedanan,2.38152,102.35589,90013921,http://otp.transitos.io/otpws/api/cities/6/index/stops/1:90013921,0,
90014008,14008,Wemstar,BA:Wemstar,2.37283,102.53267,90014008,http://otp.transitos.io/otpws/api/cities/6/index/stops/1:90014008,0,
90013924,13924,ILP Selandar,BA:ILP Selandar,2.39586,102.38212,90013924,http://otp.transitos.io/otpws/api/cities/6/index/stops/1:90013924,0,
90014003,14003,Klinik Kesihatan Simpang Bekoh,BA:Klinik Kesihatan Simpang Bekoh,2.35842,102.51197,90014003,http://otp.transitos.io/otpws/api/cities/6/index/stops/1:90014003,0,
90013780,13780,Kuil Sri Sithi Vinayagar Sri Bala Subram,BA:Kuil Sri Sithi Vinayagar Sri Bala Subram,2.37676,102.22192,90013780,http://otp.transitos.io/otpws/api/cities/6/index/stops/1:90013780,0,
90013687,13687,Kampung Bukit Nangka,BA:Kampung Bukit Nangka,2.4137,102.24438,90013687,http://otp.transitos.io/otpws/api/cities/6/index/stops/1:90013687,0,
90013486,13486,Opp Jalan 1 Krubong Gate 2,BA:Opp Jalan 1 Krubong Gate 2,2.30671,102.25191,90013486,http://otp.transitos.io/otpws/api/cities/6/index/stops/1:90013486,0,
90013380,13380,Opp Zoo Melaka,BA:Opp Zoo Melaka,2.27589,102.29796,90013380,http://otp.transitos.io/otpws/api/cities/6/index/stops/1:90013380,0,
90013577,13577,Paya Luboh 2,BA:Paya Luboh 2,2.25132,102.15928,90013577,http://otp.transitos.io/otpws/api/cities/6/index/stops/1:90013577,0,
90013369,13369,Taman Putat Indah,BA:Taman Putat Indah,2.2566,102.26789,90013369,http://otp.transitos.io/otpws/api/cities/6/index/stops/1:90013369,0,
90013925,13925,Balai Polis Selandar,BA:Balai Polis Selandar,2.39066,102.37976,90013925,http://otp.transitos.io/otpws/api/cities/6/index/stops/1:90013925,0,
90013992,13992,Bukit Katong,BA:Bukit Katong,2.31977,102.46066,90013992,http://otp.transitos.io/otpws/api/cities/6/index/stops/1:90013992,0,
90013774,13774,Opp Masjid Ubaidah Melaka,BA:Opp Masjid Ubaidah Melaka,2.36166,102.22825,90013774,http://otp.transitos.io/otpws/api/cities/6/index/stops/1:90013774,0,
90013755,13755,SK Belimbing Dalam,BA:SK Belimbing Dalam,2.31967,102.25917,90013755,http://otp.transitos.io/otpws/api/cities/6/index/stops/1:90013755,0,
90013961,13961,Melaka Golf & Country Club,BA:Melaka Golf & Country Club,2.26869,102.32047,90013961,http://otp.transitos.io/otpws/api/cities/6/index/stops/1:90013961,0,
90013495,13495,Opp Taman Bertam Malim,BA:Opp Taman Bertam Malim,2.24791,102.22307,90013495,http://otp.transitos.io/otpws/api/cities/6/index/stops/1:90013495,0,
90013633,13633,Hotel Coastal Park,BA:Hotel Coastal Park,2.1874,102.26991,90013633,http://otp.transitos.io/otpws/api/cities/6/index/stops/1:90013633,0,
90013529,13529,Taman Siantan / Masjid Tengkera,BA:Taman Siantan / Masjid Tengkera,2.20385,102.23201,90013529,http://otp.transitos.io/otpws/api/cities/6/index/stops/1:90013529,0,
90013538,13538,Lagenda Condo,BA:Lagenda Condo,2.21201,102.21004,90013538,http://otp.transitos.io/otpws/api/cities/6/index/stops/1:90013538,0,
90013791,13791,Opp Balai Raya JPKK Kampung Paya Datok,BA:Opp Balai Raya JPKK Kampung Paya Datok,2.4048,102.19798,90013791,http://otp.transitos.io/otpws/api/cities/6/index/stops/1:90013791,0,
90013389,13389,Taman Bahagia,BA:Taman Bahagia,2.21669,102.27061,90013389,http://otp.transitos.io/otpws/api/cities/6/index/stops/1:90013389,0,
90013923,13923,SMK Selandar,BA:SMK Selandar,2.38848,102.37515,90013923,http://otp.transitos.io/otpws/api/cities/6/index/stops/1:90013923,0,
90013553,13553,Pantai Klebang,BA:Pantai Klebang,2.2195,102.19184,90013553,http://otp.transitos.io/otpws/api/cities/6/index/stops/1:90013553,0,
90013950,13950,Genting Plantation,BA:Genting Plantation,2.46323,102.38327,90013950,http://otp.transitos.io/otpws/api/cities/6/index/stops/1:90013950,0,
90013714,13714,International College Of Yayasan Melaka/,BA:International College Of Yayasan Melaka/,2.22699,102.26662,90013714,http://otp.transitos.io/otpws/api/cities/6/index/stops/1:90013714,0,
90013930,13930,Taman Batang Melaka,BA:Taman Batang Melaka,2.46677,102.41182,90013930,http://otp.transitos.io/otpws/api/cities/6/index/stops/1:90013930,0,
90013733,13733,Galeri Lebah Melaka,BA:Galeri Lebah Melaka,2.27928,102.3002,90013733,http://otp.transitos.io/otpws/api/cities/6/index/stops/1:90013733,0,
90013962,13962,Opp Melaka Golf & Country Club,BA:Opp Melaka Golf & Country Club,2.26863,102.32056,90013962,http://otp.transitos.io/otpws/api/cities/6/index/stops/1:90013962,0,
90013902,13902,Angsa Mas,BA:Angsa Mas,2.29082,102.26247,90013902,http://otp.transitos.io/otpws/api/cities/6/index/stops/1:90013902,0,
90013819,13819,Klinik Kesihatan Seri Tanjung,BA:Klinik Kesihatan Seri Tanjung,2.24303,102.15865,90013819,http://otp.transitos.io/otpws/api/cities/6/index/stops/1:90013819,0,
90013775,13775,Simpang Jalan Ujong Padang 2,BA:Simpang Jalan Ujong Padang 2,2.36222,102.22706,90013775,http://otp.transitos.io/otpws/api/cities/6/index/stops/1:90013775,0,
90013440,13440,Taman Merdeka,BA:Taman Merdeka,2.26703,102.24418,90013440,http://otp.transitos.io/otpws/api/cities/6/index/stops/1:90013440,0,
90013697,13697,Kampung Tanjung Rimau,BA:Kampung Tanjung Rimau,2.44041,102.23895,90013697,http://otp.transitos.io/otpws/api/cities/6/index/stops/1:90013697,0,
90013945,13945,SK Ladang Kemuning,BA:SK Ladang Kemuning,2.45947,102.33884,90013945,http://otp.transitos.io/otpws/api/cities/6/index/stops/1:90013945,0,
90013587,13587,Taman Spring Garden,BA:Taman Spring Garden,2.22181,102.17183,90013587,http://otp.transitos.io/otpws/api/cities/6/index/stops/1:90013587,0,
90013419,13419,Wisma Air,BA:Wisma Air,2.20419,102.24617,90013419,http://otp.transitos.io/otpws/api/cities/6/index/stops/1:90013419,0,
90013813,13813,Taman Bukit Gedong 1,BA:Taman Bukit Gedong 1,2.22602,102.1588,90013813,http://otp.transitos.io/otpws/api/cities/6/index/stops/1:90013813,0,
90013959,13959,Opp Taman Hang Tuah,BA:Opp Taman Hang Tuah,2.26762,102.30662,90013959,http://otp.transitos.io/otpws/api/cities/6/index/stops/1:90013959,0,
90013790,13790,Masjid Al-Jauhari,BA:Masjid Al-Jauhari,2.40268,102.19975,90013790,http://otp.transitos.io/otpws/api/cities/6/index/stops/1:90013790,0,
90013560,13560,Taman Rambai Tengah,BA:Taman Rambai Tengah,2.23701,102.19223,90013560,http://otp.transitos.io/otpws/api/cities/6/index/stops/1:90013560,0,
90013473,13473,Taman Sri Krubong/Goldsta,BA:Taman Sri Krubong/Goldsta,2.26838,102.23161,90013473,http://otp.transitos.io/otpws/api/cities/6/index/stops/1:90013473,0,
90013605,13605,Kampung Pantai Kundor,BA:Kampung Pantai Kundor,2.24614,102.14051,90013605,http://otp.transitos.io/otpws/api/cities/6/index/stops/1:90013605,0,
90014484,14484,Putra Height Melaka,BA:Putra Height Melaka,2.23177,102.26775,90014484,http://otp.transitos.io/otpws/api/cities/6/index/stops/1:90014484,0,
90013804,13804,Kedai Makan Che Som 3 Beradik,BA:Kedai Makan Che Som 3 Beradik,2.44622,102.18242,90013804,http://otp.transitos.io/otpws/api/cities/6/index/stops/1:90013804,0,
90013797,13797,Opp SMK Naning,BA:Opp SMK Naning,2.42522,102.19164,90013797,http://otp.transitos.io/otpws/api/cities/6/index/stops/1:90013797,0,
90013713,13713,Opp International College Of Yayasan Mel,BA:Opp International College Of Yayasan Mel,2.22695,102.26674,90013713,http://otp.transitos.io/otpws/api/cities/6/index/stops/1:90013713,0,
90014014,14014,Masjid Kariah Asahan,BA:Masjid Kariah Asahan,2.39575,102.554,90014014,http://otp.transitos.io/otpws/api/cities/6/index/stops/1:90014014,0,
90013523,13523,Persatuan Low Melaka,BA:Persatuan Low Melaka,2.19774,102.24347,90013523,http://otp.transitos.io/otpws/api/cities/6/index/stops/1:90013523,0,
90013652,13652,Opp Taman Permai,BA:Opp Taman Permai,2.31064,102.21752,90013652,http://otp.transitos.io/otpws/api/cities/6/index/stops/1:90013652,0,
90013717,13717,Opp Makmal Perubatan Pantai,BA:Opp Makmal Perubatan Pantai,2.23833,102.28887,90013717,http://otp.transitos.io/otpws/api/cities/6/index/stops/1:90013717,0,
90013782,13782,Pejabat Perikanan Daerah Alor Gajah,BA:Pejabat Perikanan Daerah Alor Gajah,2.38044,102.2184,90013782,http://otp.transitos.io/otpws/api/cities/6/index/stops/1:90013782,0,
90013869,13869,Melaka Sentral 2,BA:Melaka Sentral 2,2.22009,102.25072,90013869,http://otp.transitos.io/otpws/api/cities/6/index/stops/1:90013869,0,
90013497,13497,Opp SK Malim,BA:Opp SK Malim,2.25055,102.22284,90013497,http://otp.transitos.io/otpws/api/cities/6/index/stops/1:90013497,0,
90013628,13628,Pangsapuri Pasir Mutiara,BA:Pangsapuri Pasir Mutiara,2.18709,102.27137,90013628,http://otp.transitos.io/otpws/api/cities/6/index/stops/1:90013628,0,
90013428,13428,Kampung Bachang Barat,BA:Kampung Bachang Barat,2.23742,102.24295,90013428,http://otp.transitos.io/otpws/api/cities/6/index/stops/1:90013428,0,
90013392,13392,Sekolah Tinggi St David,BA:Sekolah Tinggi St David,2.22123,102.27663,90013392,http://otp.transitos.io/otpws/api/cities/6/index/stops/1:90013392,0,
90013932,13932,SK Batang Melaka,BA:SK Batang Melaka,2.47015,102.41206,90013932,http://otp.transitos.io/otpws/api/cities/6/index/stops/1:90013932,0,
90013732,13732,Mydin Ayer Keroh,BA:Mydin Ayer Keroh,2.2688,102.29305,90013732,http://otp.transitos.io/otpws/api/cities/6/index/stops/1:90013732,0,
90013350,13350,Opp Texas Instrument,BA:Opp Texas Instrument,2.23222,102.2619,90013350,http://otp.transitos.io/otpws/api/cities/6/index/stops/1:90013350,0,
90013533,13533,Warung Hajjah Robiah,BA:Warung Hajjah Robiah,2.20449,102.22526,90013533,http://otp.transitos.io/otpws/api/cities/6/index/stops/1:90013533,0,
90013794,13794,Surau Kampung Solok Sinda Paya Datok,BA:Surau Kampung Solok Sinda Paya Datok,2.41039,102.19525,90013794,http://otp.transitos.io/otpws/api/cities/6/index/stops/1:90013794,0,
90013978,13978,Masjid Al Barakah Kampung Kesang Luar,BA:Masjid Al Barakah Kampung Kesang Luar,2.31852,102.40321,90013978,http://otp.transitos.io/otpws/api/cities/6/index/stops/1:90013978,0,
90013427,13427,Masjid Ar-Razzaq,BA:Masjid Ar-Razzaq,2.23166,102.24243,90013427,http://otp.transitos.io/otpws/api/cities/6/index/stops/1:90013427,0,
90013802,13802,Opp Muzium Warisan Naning Melaka,BA:Opp Muzium Warisan Naning Melaka,2.43571,102.1846,90013802,http://otp.transitos.io/otpws/api/cities/6/index/stops/1:90013802,0,
90013586,13586,Sekolah Tunas Bakti / Ocean Palm Condo,BA:Sekolah Tunas Bakti / Ocean Palm Condo,2.22216,102.1762,90013586,http://otp.transitos.io/otpws/api/cities/6/index/stops/1:90013586,0,
90013402,13402,Opp Masjid Sayyidina Ali,BA:Opp Masjid Sayyidina Ali,2.23115,102.29237,90013402,http://otp.transitos.io/otpws/api/cities/6/index/stops/1:90013402,0,
90013954,13954,Taman Seribu Bunga,BA:Taman Seribu Bunga,2.26652,102.29766,90013954,http://otp.transitos.io/otpws/api/cities/6/index/stops/1:90013954,0,
90013643,13643,Rumah Panjang Paya Rumput,BA:Rumah Panjang Paya Rumput,2.28741,102.21357,90013643,http://otp.transitos.io/otpws/api/cities/6/index/stops/1:90013643,0,
90013953,13953,Opp Taman Seribu Bunga,BA:Opp Taman Seribu Bunga,2.2665,102.29753,90013953,http://otp.transitos.io/otpws/api/cities/6/index/stops/1:90013953,0,
90013521,13521,SJK (C) Yok Bin,BA:SJK (C) Yok Bin,2.20029,102.24632,90013521,http://otp.transitos.io/otpws/api/cities/6/index/stops/1:90013521,0,
90013542,13542,SK Klebang Besar,BA:SK Klebang Besar,2.22267,102.20562,90013542,http://otp.transitos.io/otpws/api/cities/6/index/stops/1:90013542,0,
90013798,13798,SMK Naning,BA:SMK Naning,2.42528,102.19174,90013798,http://otp.transitos.io/otpws/api/cities/6/index/stops/1:90013798,0,
90013385,13385,Taman Sin Hoe,BA:Taman Sin Hoe,2.21539,102.26662,90013385,http://otp.transitos.io/otpws/api/cities/6/index/stops/1:90013385,0,
90013870,13870,Opp Taman Balai Panjang,BA:Opp Taman Balai Panjang,2.23533,102.2244,90013870,http://otp.transitos.io/otpws/api/cities/6/index/stops/1:90013870,0,
90013917,13917,Taman Rekreasi Datuk Wira Poh Ah Tiam,BA:Taman Rekreasi Datuk Wira Poh Ah Tiam,2.37981,102.32906,90013917,http://otp.transitos.io/otpws/api/cities/6/index/stops/1:90013917,0,
90013562,13562,Kampung Setulang Daing,BA:Kampung Setulang Daing,2.24438,102.19307,90013562,http://otp.transitos.io/otpws/api/cities/6/index/stops/1:90013562,0,
90013421,13421,Medan Selera Tun Ali,BA:Medan Selera Tun Ali,2.20546,102.2478,90013421,http://otp.transitos.io/otpws/api/cities/6/index/stops/1:90013421,0,
90013532,13532,SK Tengkera 1 & 2,BA:SK Tengkera 1 & 2,2.20443,102.2268,90013532,http://otp.transitos.io/otpws/api/cities/6/index/stops/1:90013532,0,
90013927,13927,Kolej Komuniti Selandar,BA:Kolej Komuniti Selandar,2.40009,102.38514,90013927,http://otp.transitos.io/otpws/api/cities/6/index/stops/1:90013927,0,
90013694,13694,Kampung Tanjong Rimau Luar,BA:Kampung Tanjong Rimau Luar,2.43019,102.24911,90013694,http://otp.transitos.io/otpws/api/cities/6/index/stops/1:90013694,0,
90013789,13789,Opp Masjid Al-Jauhari,BA:Opp Masjid Al-Jauhari,2.40287,102.19974,90013789,http://otp.transitos.io/otpws/api/cities/6/index/stops/1:90013789,0,
90013658,13658,Opp Taman Rembia Cemerlang,BA:Opp Taman Rembia Cemerlang,2.32583,102.21019,90013658,http://otp.transitos.io/otpws/api/cities/6/index/stops/1:90013658,0,
90013899,13899,Opp Sra Gangsa,BA:Opp Sra Gangsa,2.28365,102.26259,90013899,http://otp.transitos.io/otpws/api/cities/6/index/stops/1:90013899,0,
90013712,13712,Opp Kampung Batu Hampar,BA:Opp Kampung Batu Hampar,2.2257,102.26342,90013712,http://otp.transitos.io/otpws/api/cities/6/index/stops/1:90013712,0,
90013447,13447,Opp Taman Mas Merah,BA:Opp Taman Mas Merah,2.265,102.25455,90013447,http://otp.transitos.io/otpws/api/cities/6/index/stops/1:90013447,0,
90013455,13455,Smjk Tinggi Cina Melaka,BA:Smjk Tinggi Cina Melaka,2.22082,102.23679,90013455,http://otp.transitos.io/otpws/api/cities/6/index/stops/1:90013455,0,
90013841,13841,Akademi Rela Malaysia Sungai Udang,BA:Akademi Rela Malaysia Sungai Udang,2.29731,102.13282,90013841,http://otp.transitos.io/otpws/api/cities/6/index/stops/1:90013841,0,
90013845,13845,HRSB Holding,BA:HRSB Holding,2.32853,102.12598,90013845,http://otp.transitos.io/otpws/api/cities/6/index/stops/1:90013845,0,
90014467,14467,Opp Pantai Hospital Melaka 2,BA:Opp Pantai Hospital Melaka 2,2.23852,102.28708,90014467,http://otp.transitos.io/otpws/api/cities/6/index/stops/1:90014467,0,
90013975,13975,Kesang Damai,BA:Kesang Damai,2.31414,102.3942,90013975,http://otp.transitos.io/otpws/api/cities/6/index/stops/1:90013975,0,
90013726,13726,Ayer Keroh Heights,BA:Ayer Keroh Heights,2.2547,102.29167,90013726,http://otp.transitos.io/otpws/api/cities/6/index/stops/1:90013726,0,
90014005,14005,Simpang Bekoh,BA:Simpang Bekoh,2.35982,102.51217,90014005,http://otp.transitos.io/otpws/api/cities/6/index/stops/1:90014005,0,
90013940,13940,Ladang Tebong,BA:Ladang Tebong,2.4347,102.33912,90013940,http://otp.transitos.io/otpws/api/cities/6/index/stops/1:90013940,0,
90013767,13767,Pekan Pantai Belimbing,BA:Pekan Pantai Belimbing,2.34336,102.25632,90013767,http://otp.transitos.io/otpws/api/cities/6/index/stops/1:90013767,0,
90013582,13582,Seri Bayan Condominium,BA:Seri Bayan Condominium,2.22132,102.18227,90013582,http://otp.transitos.io/otpws/api/cities/6/index/stops/1:90013582,0,
90013433,13433,Taman Bachang Baru 2,BA:Taman Bachang Baru 2,2.24547,102.24969,90013433,http://otp.transitos.io/otpws/api/cities/6/index/stops/1:90013433,0,
90013632,13632,Taman Kampong Atap,BA:Taman Kampong Atap,2.1882,102.26463,90013632,http://otp.transitos.io/otpws/api/cities/6/index/stops/1:90013632,0,
90013824,13824,Masjid Batu 10 Tangga Batu,BA:Masjid Batu 10 Tangga Batu,2.25935,102.1525,90013824,http://otp.transitos.io/otpws/api/cities/6/index/stops/1:90013824,0,
90013675,13675,Balai Raya Jkkk Kelemak Jaya,BA:Balai Raya Jkkk Kelemak Jaya,2.37163,102.20638,90013675,http://otp.transitos.io/otpws/api/cities/6/index/stops/1:90013675,0,
90013912,13912,The Touch City,BA:The Touch City,2.33076,102.32216,90013912,http://otp.transitos.io/otpws/api/cities/6/index/stops/1:90013912,0,
90013395,13395,Opp Aeon Ayer Keroh,BA:Opp Aeon Ayer Keroh,2.23288,102.28268,90013395,http://otp.transitos.io/otpws/api/cities/6/index/stops/1:90013395,0,
90013919,13919,Kampung Bera Bukit Sedanan,BA:Kampung Bera Bukit Sedanan,2.38048,102.35333,90013919,http://otp.transitos.io/otpws/api/cities/6/index/stops/1:90013919,0,
90013439,13439,Opp Taman Merdeka,BA:Opp Taman Merdeka,2.26717,102.24417,90013439,http://otp.transitos.io/otpws/api/cities/6/index/stops/1:90013439,0,
90013611,13611,Klinik Kesihatan Tangga Batu,BA:Klinik Kesihatan Tangga Batu,2.25361,102.15104,90013611,http://otp.transitos.io/otpws/api/cities/6/index/stops/1:90013611,0,
90014473,14473,Taman Faridah,BA:Taman Faridah,2.24674,102.27508,90014473,http://otp.transitos.io/otpws/api/cities/6/index/stops/1:90014473,0,
90013623,13623,Muzium Samudera,BA:Muzium Samudera,2.19202,102.24686,90013623,http://otp.transitos.io/otpws/api/cities/6/index/stops/1:90013623,0,
90013396,13396,Kompleks Mahkamah Melaka,BA:Kompleks Mahkamah Melaka,2.23487,102.28512,90013396,http://otp.transitos.io/otpws/api/cities/6/index/stops/1:90013396,0,
90014015,14015,Taman Seri Asahan,BA:Taman Seri Asahan,2.39999,102.56399,90014015,http://otp.transitos.io/otpws/api/cities/6/index/stops/1:90014015,0,
90013983,13983,Kampung Air Barok 2,BA:Kampung Air Barok 2,2.31168,102.42221,90013983,http://otp.transitos.io/otpws/api/cities/6/index/stops/1:90013983,0,
90013892,13892,Opp Medan Selera Batu Berendam,BA:Opp Medan Selera Batu Berendam,2.25374,102.25444,90013892,http://otp.transitos.io/otpws/api/cities/6/index/stops/1:90013892,0,
90013406,13406,Opp JPJ Melaka,BA:Opp JPJ Melaka,2.22899,102.29694,90013406,http://otp.transitos.io/otpws/api/cities/6/index/stops/1:90013406,0,
90013709,13709,Pekan Tampin,BA:Pekan Tampin,2.46495,102.23102,90013709,http://otp.transitos.io/otpws/api/cities/6/index/stops/1:90013709,0,
90013631,13631,Taman Jaya Padang Temu,BA:Taman Jaya Padang Temu,2.18643,102.27567,90013631,http://otp.transitos.io/otpws/api/cities/6/index/stops/1:90013631,0,
90013559,13559,Kampung Rambai Tengah,BA:Kampung Rambai Tengah,2.23409,102.1914,90013559,http://otp.transitos.io/otpws/api/cities/6/index/stops/1:90013559,0,
90013849,13849,Tomyam Dzarfan,BA:Tomyam Dzarfan,2.34305,102.11393,90013849,http://otp.transitos.io/otpws/api/cities/6/index/stops/1:90013849,0,
90013846,13846,Seri Emas Seafood,BA:Seri Emas Seafood,2.33026,102.12148,90013846,http://otp.transitos.io/otpws/api/cities/6/index/stops/1:90013846,0,
90013617,13617,Petron Jalan Taming Sari,BA:Petron Jalan Taming Sari,2.21307,102.25646,90013617,http://otp.transitos.io/otpws/api/cities/6/index/stops/1:90013617,0,
90013677,13677,Terminal Alor Gajah Sentral,BA:Terminal Alor Gajah Sentral,2.38215,102.21151,90013677,http://otp.transitos.io/otpws/api/cities/6/index/stops/1:90013677,0,
90013939,13939,Kampung Tebong,BA:Kampung Tebong,2.43205,102.33936,90013939,http://otp.transitos.io/otpws/api/cities/6/index/stops/1:90013939,0,
90013464,13464,Perindustrian Malim Jaya,BA:Perindustrian Malim Jaya,2.24148,102.23498,90013464,http://otp.transitos.io/otpws/api/cities/6/index/stops/1:90013464,0,
90014006,14006,Taman Kasturi,BA:Taman Kasturi,2.36579,102.51541,90014006,http://otp.transitos.io/otpws/api/cities/6/index/stops/1:90014006,0,
90013368,13368,Opp Mango Float Royale,BA:Opp Mango Float Royale,2.25597,102.26343,90013368,http://otp.transitos.io/otpws/api/cities/6/index/stops/1:90013368,0,
90013476,13476,Masjid As Salam,BA:Masjid As Salam,2.27979,102.23346,90013476,http://otp.transitos.io/otpws/api/cities/6/index/stops/1:90013476,0,
90013449,13449,Airport Fire And Rescue,BA:Airport Fire And Rescue,2.26227,102.25384,90013449,http://otp.transitos.io/otpws/api/cities/6/index/stops/1:90013449,0,
90013520,13520,Plaza Hang Tuah 1,BA:Plaza Hang Tuah 1,2.20197,102.24721,90013520,http://otp.transitos.io/otpws/api/cities/6/index/stops/1:90013520,0,
90013622,13622,Menara Tamingsari,BA:Menara Tamingsari,2.19051,102.24748,90013622,http://otp.transitos.io/otpws/api/cities/6/index/stops/1:90013622,0,
90013637,13637,Security Force Bachang,BA:Security Force Bachang,2.23916,102.24394,90013637,http://otp.transitos.io/otpws/api/cities/6/index/stops/1:90013637,0,
90013840,13840,SMK Sungai Udang,BA:SMK Sungai Udang,2.29451,102.1339,90013840,http://otp.transitos.io/otpws/api/cities/6/index/stops/1:90013840,0,
90013401,13401,Opp Taman Baru Bukit Katil,BA:Opp Taman Baru Bukit Katil,2.23245,102.29081,90013401,http://otp.transitos.io/otpws/api/cities/6/index/stops/1:90013401,0,
90013016,13016,Hospital Melaka,BA:Hospital Melaka,2.21716,102.2603,90013016,http://otp.transitos.io/otpws/api/cities/6/index/stops/1:90013016,0,
90013591,13591,Tanjung Kling,BA:Tanjung Kling,2.2219,102.16347,90013591,http://otp.transitos.io/otpws/api/cities/6/index/stops/1:90013591,0,
90013704,13704,Desa Pulau Sebang,BA:Desa Pulau Sebang,2.45746,102.23092,90013704,http://otp.transitos.io/otpws/api/cities/6/index/stops/1:90013704,0,
90013864,13864,Kampung Air Hitam Darat,BA:Kampung Air Hitam Darat,2.3267,102.08436,90013864,http://otp.transitos.io/otpws/api/cities/6/index/stops/1:90013864,0,
90013590,13590,Surau Tengah,BA:Surau Tengah,2.22171,102.16588,90013590,http://otp.transitos.io/otpws/api/cities/6/index/stops/1:90013590,0,
90013952,13952,Kampung Batang Melaka 2,BA:Kampung Batang Melaka 2,2.46789,102.40163,90013952,http://otp.transitos.io/otpws/api/cities/6/index/stops/1:90013952,0,
90013546,13546,Taman Gadong Bahagia,BA:Taman Gadong Bahagia,2.23301,102.21005,90013546,http://otp.transitos.io/otpws/api/cities/6/index/stops/1:90013546,0,
90013833,13833,SJK (C) Sungai Udang,BA:SJK (C) Sungai Udang,2.28224,102.13475,90013833,http://otp.transitos.io/otpws/api/cities/6/index/stops/1:90013833,0,
90013936,13936,Kampung Machap,BA:Kampung Machap,2.3838,102.34283,90013936,http://otp.transitos.io/otpws/api/cities/6/index/stops/1:90013936,0,
90013761,13761,Kampung Harmony Belimbing Dalam 2,BA:Kampung Harmony Belimbing Dalam 2,2.33606,102.26261,90013761,http://otp.transitos.io/otpws/api/cities/6/index/stops/1:90013761,0,
90013367,13367,Mango Float Royale,BA:Mango Float Royale,2.25585,102.26387,90013367,http://otp.transitos.io/otpws/api/cities/6/index/stops/1:90013367,0,
90013425,13425,Kampung Baroh,BA:Kampung Baroh,2.22558,102.24182,90013425,http://otp.transitos.io/otpws/api/cities/6/index/stops/1:90013425,0,
90013499,13499,SMK Malim,BA:SMK Malim,2.25219,102.22283,90013499,http://otp.transitos.io/otpws/api/cities/6/index/stops/1:90013499,0,
90013373,13373,Kampung Baru Ayer Keroh,BA:Kampung Baru Ayer Keroh,2.26561,102.28275,90013373,http://otp.transitos.io/otpws/api/cities/6/index/stops/1:90013373,0,
90013461,13461,Opp Malim Jaya,BA:Opp Malim Jaya,2.23353,102.23171,90013461,http://otp.transitos.io/otpws/api/cities/6/index/stops/1:90013461,0,
90013452,13452,Opp Taman Seri Songket,BA:Opp Taman Seri Songket,2.25954,102.2533,90013452,http://otp.transitos.io/otpws/api/cities/6/index/stops/1:90013452,0,
90013665,13665,Taman Sungai Petai Bahagia,BA:Taman Sungai Petai Bahagia,2.33785,102.20942,90013665,http://otp.transitos.io/otpws/api/cities/6/index/stops/1:90013665,0,
90013760,13760,Kampung Harmony Belimbing Dalam 1,BA:Kampung Harmony Belimbing Dalam 1,2.33477,102.26256,90013760,http://otp.transitos.io/otpws/api/cities/6/index/stops/1:90013760,0,
90013445,13445,Opp Taman Angkasa Nuri 2,BA:Opp Taman Angkasa Nuri 2,2.28004,102.25348,90013445,http://otp.transitos.io/otpws/api/cities/6/index/stops/1:90013445,0,
90013608,13608,Rumah Anak-Anak Yatim Sultan Salahuddin,BA:Rumah Anak-Anak Yatim Sultan Salahuddin,2.24661,102.13895,90013608,http://otp.transitos.io/otpws/api/cities/6/index/stops/1:90013608,0,
90013971,13971,Taman Bemban,BA:Taman Bemban,2.27616,102.37779,90013971,http://otp.transitos.io/otpws/api/cities/6/index/stops/1:90013971,0,
90013974,13974,Taman Kesang Jaya,BA:Taman Kesang Jaya,2.31176,102.39031,90013974,http://otp.transitos.io/otpws/api/cities/6/index/stops/1:90013974,0,
90013612,13612,Taman Tangga Batu,BA:Taman Tangga Batu,2.25434,102.14814,90013612,http://otp.transitos.io/otpws/api/cities/6/index/stops/1:90013612,0,
90013585,13585,SJK(C) Ek Te,BA:SJK(C) Ek Te,2.22197,102.17404,90013585,http://otp.transitos.io/otpws/api/cities/6/index/stops/1:90013585,0,
90013647,13647,Opp Rumah Awam Paya Rumput,BA:Opp Rumah Awam Paya Rumput,2.29417,102.21485,90013647,http://otp.transitos.io/otpws/api/cities/6/index/stops/1:90013647,0,
90013651,13651,Opp Paya Rumput,BA:Opp Paya Rumput,2.30526,102.21431,90013651,http://otp.transitos.io/otpws/api/cities/6/index/stops/1:90013651,0,
90013357,13357,SK Batu Berendam 2,BA:SK Batu Berendam 2,2.24436,102.25718,90013357,http://otp.transitos.io/otpws/api/cities/6/index/stops/1:90013357,0,
90013901,13901,Kampung Tualang,BA:Kampung Tualang,2.29463,102.26278,90013901,http://otp.transitos.io/otpws/api/cities/6/index/stops/1:90013901,0,
90013695,13695,Masjid Al Qaniteen,BA:Masjid Al Qaniteen,2.43337,102.24671,90013695,http://otp.transitos.io/otpws/api/cities/6/index/stops/1:90013695,0,
90013465,13465,Opp Perindustrian Malim Jaya,BA:Opp Perindustrian Malim Jaya,2.24151,102.2349,90013465,http://otp.transitos.io/otpws/api/cities/6/index/stops/1:90013465,0,
90013408,13408,Taman Puncak Bukit Katil,BA:Taman Puncak Bukit Katil,2.23734,102.3004,90013408,http://otp.transitos.io/otpws/api/cities/6/index/stops/1:90013408,0,
90013460,13460,Malim Jaya,BA:Malim Jaya,2.23365,102.23163,90013460,http://otp.transitos.io/otpws/api/cities/6/index/stops/1:90013460,0,
90013371,13371,Opp Tokong Yui Yang Keong,BA:Opp Tokong Yui Yang Keong,2.26682,102.28102,90013371,http://otp.transitos.io/otpws/api/cities/6/index/stops/1:90013371,0,
90013796,13796,Opp Taman Sri Melekek,BA:Opp Taman Sri Melekek,2.41305,102.19455,90013796,http://otp.transitos.io/otpws/api/cities/6/index/stops/1:90013796,0,
90013475,13475,Taman Sri Krubong 2,BA:Taman Sri Krubong 2,2.2798,102.23096,90013475,http://otp.transitos.io/otpws/api/cities/6/index/stops/1:90013475,0,
90013673,13673,Taman Perindustrian Kelemak,BA:Taman Perindustrian Kelemak,2.36387,102.20867,90013673,http://otp.transitos.io/otpws/api/cities/6/index/stops/1:90013673,0,
90013640,13640,Opp Taman Paya Rumput Bistari,BA:Opp Taman Paya Rumput Bistari,2.28459,102.21439,90013640,http://otp.transitos.io/otpws/api/cities/6/index/stops/1:90013640,0,
90014002,14002,Selera Simpang Bekoh,BA:Selera Simpang Bekoh,2.35675,102.51163,90014002,http://otp.transitos.io/otpws/api/cities/6/index/stops/1:90014002,0,
90013958,13958,Seri Negeri,BA:Seri Negeri,2.26523,102.30071,90013958,http://otp.transitos.io/otpws/api/cities/6/index/stops/1:90013958,0,
90013875,13875,Opp Rumah Awam Bertam Malim,BA:Opp Rumah Awam Bertam Malim,2.24356,102.22334,90013875,http://otp.transitos.io/otpws/api/cities/6/index/stops/1:90013875,0,
90013418,13418,Opp Aeon Bandaraya Melaka,BA:Opp Aeon Bandaraya Melaka,2.21463,102.24812,90013418,http://otp.transitos.io/otpws/api/cities/6/index/stops/1:90013418,0,
90013691,13691,Masjid Al-Najihin Padang Sebang,BA:Masjid Al-Najihin Padang Sebang,2.42104,102.25159,90013691,http://otp.transitos.io/otpws/api/cities/6/index/stops/1:90013691,0,
90013811,13811,Kampung Solok Biak,BA:Kampung Solok Biak,2.22389,102.16008,90013811,http://otp.transitos.io/otpws/api/cities/6/index/stops/1:90013811,0,
90013488,13488,Opp Taman Krubong Perdana,BA:Opp Taman Krubong Perdana,2.32781,102.24971,90013488,http://otp.transitos.io/otpws/api/cities/6/index/stops/1:90013488,0,
90013454,13454,Opp Smjk Tinggi Cina Melaka,BA:Opp Smjk Tinggi Cina Melaka,2.22095,102.23674,90013454,http://otp.transitos.io/otpws/api/cities/6/index/stops/1:90013454,0,
90013815,13815,Kampung Bukit Darat,BA:Kampung Bukit Darat,2.23191,102.15929,90013815,http://otp.transitos.io/otpws/api/cities/6/index/stops/1:90013815,0,
90013349,13349,Texas Instrument,BA:Texas Instrument,2.23301,102.26207,90013349,http://otp.transitos.io/otpws/api/cities/6/index/stops/1:90013349,0,
90013737,13737,Serama Camps & Resort,BA:Serama Camps & Resort,2.30879,102.30018,90013737,http://otp.transitos.io/otpws/api/cities/6/index/stops/1:90013737,0,
90013646,13646,Rumah Awam Paya Rumput,BA:Rumah Awam Paya Rumput,2.29404,102.21489,90013646,http://otp.transitos.io/otpws/api/cities/6/index/stops/1:90013646,0,
90013463,13463,Opp Pasar Malim Jaya,BA:Opp Pasar Malim Jaya,2.23895,102.23383,90013463,http://otp.transitos.io/otpws/api/cities/6/index/stops/1:90013463,0,
90013682,13682,Kampung Buloh Cina,BA:Kampung Buloh Cina,2.39523,102.23721,90013682,http://otp.transitos.io/otpws/api/cities/6/index/stops/1:90013682,0,
90014016,14016,Kampung Baru On Lock,BA:Kampung Baru On Lock,2.4656,102.37651,90014016,http://otp.transitos.io/otpws/api/cities/6/index/stops/1:90014016,0,
90013566,13566,Taman Rambai Mutiara,BA:Taman Rambai Mutiara,2.24882,102.18886,90013566,http://otp.transitos.io/otpws/api/cities/6/index/stops/1:90013566,0,
90013635,13635,Rumah Pangsa Hilir Kota,BA:Rumah Pangsa Hilir Kota,2.18692,102.26306,90013635,http://otp.transitos.io/otpws/api/cities/6/index/stops/1:90013635,0,
90013627,13627,Kampung Bandar Hilir/Jalan Imam Jh Mohd ,BA:Kampung Bandar Hilir/Jalan Imam Jh Mohd ,2.18902,102.26053,90013627,http://otp.transitos.io/otpws/api/cities/6/index/stops/1:90013627,0,
90013806,13806,Warong Asam Pedas P. Ramli,BA:Warong Asam Pedas P. Ramli,2.45547,102.1803,90013806,http://otp.transitos.io/otpws/api/cities/6/index/stops/1:90013806,0,
90013906,13906,Smk Durian Tunggal,BA:Smk Durian Tunggal,2.30857,102.27577,90013906,http://otp.transitos.io/otpws/api/cities/6/index/stops/1:90013906,0,
90013451,13451,Taman Seri Songket,BA:Taman Seri Songket,2.25955,102.25342,90013451,http://otp.transitos.io/otpws/api/cities/6/index/stops/1:90013451,0,
90013657,13657,Opp Taman Rembia Perkasa,BA:Opp Taman Rembia Perkasa,2.32254,102.21346,90013657,http://otp.transitos.io/otpws/api/cities/6/index/stops/1:90013657,0,
90013670,13670,Sk Sungai Petai,BA:Sk Sungai Petai,2.35463,102.20886,90013670,http://otp.transitos.io/otpws/api/cities/6/index/stops/1:90013670,0,
90013513,13513,Opp Balai Raya Kampung Cheng,BA:Opp Balai Raya Kampung Cheng,2.27831,102.21506,90013513,http://otp.transitos.io/otpws/api/cities/6/index/stops/1:90013513,0,
90013536,13536,Oriental Melaka Straits Medical Centre,BA:Oriental Melaka Straits Medical Centre,2.2095,102.21447,90013536,http://otp.transitos.io/otpws/api/cities/6/index/stops/1:90013536,0,
90013979,13979,Kampung Kesang Luar,BA:Kampung Kesang Luar,2.31786,102.40535,90013979,http://otp.transitos.io/otpws/api/cities/6/index/stops/1:90013979,0,
90013557,13557,Dhammacakka Buddist Vihara,BA:Dhammacakka Buddist Vihara,2.23211,102.19051,90013557,http://otp.transitos.io/otpws/api/cities/6/index/stops/1:90013557,0,
90013429,13429,Taman Pasir Puteh,BA:Taman Pasir Puteh,2.23468,102.2427,90013429,http://otp.transitos.io/otpws/api/cities/6/index/stops/1:90013429,0,
90013728,13728,Opp Ampang Steel,BA:Opp Ampang Steel,2.25758,102.2917,90013728,http://otp.transitos.io/otpws/api/cities/6/index/stops/1:90013728,0,
90013747,13747,Kampung Pulau ,BA:Kampung Pulau ,2.31344,102.27556,90013747,http://otp.transitos.io/otpws/api/cities/6/index/stops/1:90013747,0,
90013762,13762,Kampung Harmony Belimbing Dalam 3,BA:Kampung Harmony Belimbing Dalam 3,2.33778,102.26263,90013762,http://otp.transitos.io/otpws/api/cities/6/index/stops/1:90013762,0,
90013739,13739,Jalan Durian Tunggal,BA:Jalan Durian Tunggal,2.31005,102.29846,90013739,http://otp.transitos.io/otpws/api/cities/6/index/stops/1:90013739,0,
90013838,13838,Melaka Tropical Fruit Farm,BA:Melaka Tropical Fruit Farm,2.29052,102.13116,90013838,http://otp.transitos.io/otpws/api/cities/6/index/stops/1:90013838,0,
90013539,13539,Masjid Saad Ibni Abi Waqqas,BA:Masjid Saad Ibni Abi Waqqas,2.21653,102.20421,90013539,http://otp.transitos.io/otpws/api/cities/6/index/stops/1:90013539,0,
90013982,13982,Kampung Air Barok 1,BA:Kampung Air Barok 1,2.31178,102.41755,90013982,http://otp.transitos.io/otpws/api/cities/6/index/stops/1:90013982,0,
90013771,13771,Simpang Jalan Wajib,BA:Simpang Jalan Wajib,2.3507,102.24458,90013771,http://otp.transitos.io/otpws/api/cities/6/index/stops/1:90013771,0,
90013708,13708,Stesen Keretapi Pulau Sebang,BA:Stesen Keretapi Pulau Sebang,2.46243,102.23019,90013708,http://otp.transitos.io/otpws/api/cities/6/index/stops/1:90013708,0,
90013685,13685,SK Ganun,BA:SK Ganun,2.4094,102.23965,90013685,http://otp.transitos.io/otpws/api/cities/6/index/stops/1:90013685,0,
90013751,13751,Tadika Jaim Kampung Pulau,BA:Tadika Jaim Kampung Pulau,2.31089,102.26693,90013751,http://otp.transitos.io/otpws/api/cities/6/index/stops/1:90013751,0,
90013837,13837,Pejabat Pos Sungai Udang,BA:Pejabat Pos Sungai Udang,2.28917,102.13066,90013837,http://otp.transitos.io/otpws/api/cities/6/index/stops/1:90013837,0,
90013416,13416,Lotus Melaka,BA:Lotus Melaka,2.21668,102.24798,90013416,http://otp.transitos.io/otpws/api/cities/6/index/stops/1:90013416,0,
90013432,13432,Kampung Tengah 1,BA:Kampung Tengah 1,2.24716,102.25078,90013432,http://otp.transitos.io/otpws/api/cities/6/index/stops/1:90013432,0,
90013715,13715,Opp Taman Sentosa Melaka,BA:Opp Taman Sentosa Melaka,2.23034,102.27566,90013715,http://otp.transitos.io/otpws/api/cities/6/index/stops/1:90013715,0,
90013610,13610,Kawasan Perindustrian Tangga Batu,BA:Kawasan Perindustrian Tangga Batu,2.25479,102.14374,90013610,http://otp.transitos.io/otpws/api/cities/6/index/stops/1:90013610,0,
90013597,13597,Kampung Pengkalan Perigi ,BA:Kampung Pengkalan Perigi ,2.22633,102.15228,90013597,http://otp.transitos.io/otpws/api/cities/6/index/stops/1:90013597,0,
90013626,13626,Pangsapuri Seri Bukit,BA:Pangsapuri Seri Bukit,2.18921,102.26558,90013626,http://otp.transitos.io/otpws/api/cities/6/index/stops/1:90013626,0,
90013976,13976,Kampung Kesang Jaya,BA:Kampung Kesang Jaya,2.31517,102.3963,90013976,http://otp.transitos.io/otpws/api/cities/6/index/stops/1:90013976,0,
90014469,14469,SK Bukit Beruang,BA:SK Bukit Beruang,2.23958,102.27955,90014469,http://otp.transitos.io/otpws/api/cities/6/index/stops/1:90014469,0,
90013501,13501,Opp Taman Cheng Utama,BA:Opp Taman Cheng Utama,2.25715,102.22203,90013501,http://otp.transitos.io/otpws/api/cities/6/index/stops/1:90013501,0,
90013403,13403,Masjid Sayyidina Ali,BA:Masjid Sayyidina Ali,2.2311,102.29261,90013403,http://otp.transitos.io/otpws/api/cities/6/index/stops/1:90013403,0,
90013680,13680,Klinik Desa Pegoh,BA:Klinik Desa Pegoh,2.38756,102.21742,90013680,http://otp.transitos.io/otpws/api/cities/6/index/stops/1:90013680,0,
90013678,13678,Taman Seri Bayu,BA:Taman Seri Bayu,2.38366,102.21344,90013678,http://otp.transitos.io/otpws/api/cities/6/index/stops/1:90013678,0,
90013472,13472,Nsk Trade City (Melaka),BA:Nsk Trade City (Melaka),2.2612,102.23394,90013472,http://otp.transitos.io/otpws/api/cities/6/index/stops/1:90013472,0,
90013438,13438,Taman Datuk Tamby Chik Karim,BA:Taman Datuk Tamby Chik Karim,2.26319,102.24214,90013438,http://otp.transitos.io/otpws/api/cities/6/index/stops/1:90013438,0,
90013470,13470,Aik Cheong Beverage,BA:Aik Cheong Beverage,2.25468,102.22869,90013470,http://otp.transitos.io/otpws/api/cities/6/index/stops/1:90013470,0,
90013822,13822,Taman Tangga Batu 1,BA:Taman Tangga Batu 1,2.25307,102.15309,90013822,http://otp.transitos.io/otpws/api/cities/6/index/stops/1:90013822,0,
90013698,13698,Kampung Pulau Sebang Selatan 2,BA:Kampung Pulau Sebang Selatan 2,2.44691,102.23287,90013698,http://otp.transitos.io/otpws/api/cities/6/index/stops/1:90013698,0,
90013679,13679,Kampung Jelatang,BA:Kampung Jelatang,2.38922,102.22137,90013679,http://otp.transitos.io/otpws/api/cities/6/index/stops/1:90013679,0,
90013710,13710,Terminal Bas Tampin,BA:Terminal Bas Tampin,2.46479,102.22641,90013710,http://otp.transitos.io/otpws/api/cities/6/index/stops/1:90013710,0,
90013905,13905,Kampung Baru Bukit Balai,BA:Kampung Baru Bukit Balai,2.30955,102.27825,90013905,http://otp.transitos.io/otpws/api/cities/6/index/stops/1:90013905,0,
90013593,13593,Kampung Kelongkong,BA:Kampung Kelongkong,2.21985,102.16129,90013593,http://otp.transitos.io/otpws/api/cities/6/index/stops/1:90013593,0,
90013528,13528,Balai Polis Tengkera,BA:Balai Polis Tengkera,2.20066,102.23955,90013528,http://otp.transitos.io/otpws/api/cities/6/index/stops/1:90013528,0,
90014007,14007,Surau Kampung Sungai Dua,BA:Surau Kampung Sungai Dua,2.36719,102.52544,90014007,http://otp.transitos.io/otpws/api/cities/6/index/stops/1:90014007,0,
90013479,13479,Lt Hardware,BA:Lt Hardware,2.28578,102.24152,90013479,http://otp.transitos.io/otpws/api/cities/6/index/stops/1:90013479,0,
90013858,13858,Tabika Kemas Kampung Londang,BA:Tabika Kemas Kampung Londang,2.34247,102.09126,90013858,http://otp.transitos.io/otpws/api/cities/6/index/stops/1:90013858,0,
90013653,13653,Taman Permai,BA:Taman Permai,2.31058,102.21739,90013653,http://otp.transitos.io/otpws/api/cities/6/index/stops/1:90013653,0,
90013502,13502,Taman Cheng Utama,BA:Taman Cheng Utama,2.25723,102.22213,90013502,http://otp.transitos.io/otpws/api/cities/6/index/stops/1:90013502,0,
90013549,13549,Taman Bertam Perdana 2,BA:Taman Bertam Perdana 2,2.24321,102.21646,90013549,http://otp.transitos.io/otpws/api/cities/6/index/stops/1:90013549,0,
90013947,13947,Pekan Kampung Tebong,BA:Pekan Kampung Tebong,2.4616,102.34039,90013947,http://otp.transitos.io/otpws/api/cities/6/index/stops/1:90013947,0,
90013660,13660,Opp Taman Rembia Jaya,BA:Opp Taman Rembia Jaya,2.32768,102.20902,90013660,http://otp.transitos.io/otpws/api/cities/6/index/stops/1:90013660,0,
90013493,13493,Opp Taman Sri Krubong/Goldsta,BA:Opp Taman Sri Krubong/Goldsta,2.26802,102.22754,90013493,http://otp.transitos.io/otpws/api/cities/6/index/stops/1:90013493,0,
90013426,13426,Jalan Salmah Baba,BA:Jalan Salmah Baba,2.23343,102.24259,90013426,http://otp.transitos.io/otpws/api/cities/6/index/stops/1:90013426,0,
90014011,14011,Rtc Asahan,BA:Rtc Asahan,2.39257,102.54494,90014011,http://otp.transitos.io/otpws/api/cities/6/index/stops/1:90014011,0,
90013718,13718,Makmal Perubatan Pantai,BA:Makmal Perubatan Pantai,2.23848,102.28888,90013718,http://otp.transitos.io/otpws/api/cities/6/index/stops/1:90013718,0,
90013509,13509,Taman Cheng Perdana,BA:Taman Cheng Perdana,2.27081,102.21673,90013509,http://otp.transitos.io/otpws/api/cities/6/index/stops/1:90013509,0,
90013618,13618,Hotel Ibis,BA:Hotel Ibis,2.19795,102.252,90013618,http://otp.transitos.io/otpws/api/cities/6/index/stops/1:90013618,0,
90013398,13398,Opp Pantai Hospital Melaka,BA:Opp Pantai Hospital Melaka,2.23707,102.2876,90013398,http://otp.transitos.io/otpws/api/cities/6/index/stops/1:90013398,0,
90013778,13778,Taman Melaka Pindah,BA:Taman Melaka Pindah,2.36828,102.22256,90013778,http://otp.transitos.io/otpws/api/cities/6/index/stops/1:90013778,0,
90013689,13689,Taman Sebang Mutiara,BA:Taman Sebang Mutiara,2.41786,102.25083,90013689,http://otp.transitos.io/otpws/api/cities/6/index/stops/1:90013689,0,
90013690,13690,Taman Sebang Gemilang,BA:Taman Sebang Gemilang,2.41924,102.2513,90013690,http://otp.transitos.io/otpws/api/cities/6/index/stops/1:90013690,0,
90013437,13437,Opp Taman Datuk Tamby Chik Karim,BA:Opp Taman Datuk Tamby Chik Karim,2.26316,102.24221,90013437,http://otp.transitos.io/otpws/api/cities/6/index/stops/1:90013437,0,
90013508,13508,Gerai MBMB Taman Cheng Baru,BA:Gerai MBMB Taman Cheng Baru,2.269,102.21707,90013508,http://otp.transitos.io/otpws/api/cities/6/index/stops/1:90013508,0,
90013721,13721,Mamee Ayer Keroh,BA:Mamee Ayer Keroh,2.24694,102.29239,90013721,http://otp.transitos.io/otpws/api/cities/6/index/stops/1:90013721,0,
90014009,14009,TK Tani,BA:TK Tani,2.38524,102.53715,90014009,http://otp.transitos.io/otpws/api/cities/6/index/stops/1:90014009,0,
90013693,13693,Kampung Padang Sebang,BA:Kampung Padang Sebang,2.42282,102.25136,90013693,http://otp.transitos.io/otpws/api/cities/6/index/stops/1:90013693,0,
90013361,13361,Coconut Shake Batu Berendam,BA:Coconut Shake Batu Berendam,2.25162,102.2539,90013361,http://otp.transitos.io/otpws/api/cities/6/index/stops/1:90013361,0,
90013477,13477,Kampung Tampoi,BA:Kampung Tampoi,2.27872,102.23456,90013477,http://otp.transitos.io/otpws/api/cities/6/index/stops/1:90013477,0,
90013431,13431,Security Force,BA:Security Force,2.2391,102.24388,90013431,http://otp.transitos.io/otpws/api/cities/6/index/stops/1:90013431,0,
90013938,13938,Kampung Tebong Division,BA:Kampung Tebong Division,2.42194,102.34046,90013938,http://otp.transitos.io/otpws/api/cities/6/index/stops/1:90013938,0,
90013795,13795,Taman Sri Melekek,BA:Taman Sri Melekek,2.41302,102.19442,90013795,http://otp.transitos.io/otpws/api/cities/6/index/stops/1:90013795,0,
90013575,13575,Paya Luboh 1,BA:Paya Luboh 1,2.25303,102.15904,90013575,http://otp.transitos.io/otpws/api/cities/6/index/stops/1:90013575,0,
90013482,13482,Taman Krubong Indah,BA:Taman Krubong Indah,2.29638,102.24713,90013482,http://otp.transitos.io/otpws/api/cities/6/index/stops/1:90013482,0,
90013370,13370,Opp Taman Putat Indah,BA:Opp Taman Putat Indah,2.25653,102.26751,90013370,http://otp.transitos.io/otpws/api/cities/6/index/stops/1:90013370,0,
90013683,13683,Balai Raya Kampung Gadek,BA:Balai Raya Kampung Gadek,2.40657,102.23828,90013683,http://otp.transitos.io/otpws/api/cities/6/index/stops/1:90013683,0,
90013857,13857,Dewan Londang,BA:Dewan Londang,2.34536,102.09344,90013857,http://otp.transitos.io/otpws/api/cities/6/index/stops/1:90013857,0,
90013834,13834,Kampung Baru Sungai Udang,BA:Kampung Baru Sungai Udang,2.28379,102.13438,90013834,http://otp.transitos.io/otpws/api/cities/6/index/stops/1:90013834,0,
90013526,13526,SJK(T) Melaka (Kubu),BA:SJK(T) Melaka (Kubu),2.20378,102.24451,90013526,http://otp.transitos.io/otpws/api/cities/6/index/stops/1:90013526,0,
90013817,13817,SK Kampung Gelam,BA:SK Kampung Gelam,2.23759,102.16104,90013817,http://otp.transitos.io/otpws/api/cities/6/index/stops/1:90013817,0,
90013518,13518,Opp Bertam Ulu Batu 10,BA:Opp Bertam Ulu Batu 10,2.29175,102.18285,90013518,http://otp.transitos.io/otpws/api/cities/6/index/stops/1:90013518,0,
90013492,13492,Opp Taman Teknologi Cheng,BA:Opp Taman Teknologi Cheng,2.25692,102.22988,90013492,http://otp.transitos.io/otpws/api/cities/6/index/stops/1:90013492,0,
90013535,13535,Kuih Keria Hajah Rahmah,BA:Kuih Keria Hajah Rahmah,2.20613,102.21908,90013535,http://otp.transitos.io/otpws/api/cities/6/index/stops/1:90013535,0,
90013991,13991,SJK (C) Pay Chuin,BA:SJK (C) Pay Chuin,2.31758,102.45604,90013991,http://otp.transitos.io/otpws/api/cities/6/index/stops/1:90013991,0,
90013996,13996,Tanah Perkuburan Kristian,BA:Tanah Perkuburan Kristian,2.32791,102.48975,90013996,http://otp.transitos.io/otpws/api/cities/6/index/stops/1:90013996,0,
90013648,13648,Opp Taman Paya Rumput Indah,BA:Opp Taman Paya Rumput Indah,2.29954,102.21624,90013648,http://otp.transitos.io/otpws/api/cities/6/index/stops/1:90013648,0,
90013922,13922,Pekan Selandar,BA:Pekan Selandar,2.38972,102.37873,90013922,http://otp.transitos.io/otpws/api/cities/6/index/stops/1:90013922,0,
90013616,13616,RTM Melaka,BA:RTM Melaka,2.21233,102.25583,90013616,http://otp.transitos.io/otpws/api/cities/6/index/stops/1:90013616,0,
90013907,13907,Durian Tunggal,BA:Durian Tunggal,2.31723,102.28456,90013907,http://otp.transitos.io/otpws/api/cities/6/index/stops/1:90013907,0,
90013722,13722,Opp Mamee Ayer Keroh,BA:Opp Mamee Ayer Keroh,2.24696,102.29249,90013722,http://otp.transitos.io/otpws/api/cities/6/index/stops/1:90013722,0,
90013918,13918,Kampung Ayer Pasir,BA:Kampung Ayer Pasir,2.37977,102.34604,90013918,http://otp.transitos.io/otpws/api/cities/6/index/stops/1:90013918,0,
90013645,13645,Opp Taman Seri Paya Rumput,BA:Opp Taman Seri Paya Rumput,2.28992,102.213,90013645,http://otp.transitos.io/otpws/api/cities/6/index/stops/1:90013645,0,
90013474,13474,Umw Toyota,BA:Umw Toyota,2.2735,102.22937,90013474,http://otp.transitos.io/otpws/api/cities/6/index/stops/1:90013474,0,
90014004,14004,Sjk(C) Simpang Bekoh,BA:Sjk(C) Simpang Bekoh,2.35903,102.51206,90014004,http://otp.transitos.io/otpws/api/cities/6/index/stops/1:90014004,0,
90013989,13989,Dodol Warisan Abah Taman Rim,BA:Dodol Warisan Abah Taman Rim,2.31176,102.44714,90013989,http://otp.transitos.io/otpws/api/cities/6/index/stops/1:90013989,0,
90013955,13955,World Youth Foundation,BA:World Youth Foundation,2.26867,102.29548,90013955,http://otp.transitos.io/otpws/api/cities/6/index/stops/1:90013955,0,
90013581,13581,Marina Point,BA:Marina Point,2.22102,102.18387,90013581,http://otp.transitos.io/otpws/api/cities/6/index/stops/1:90013581,0,
90013757,13757,Jalan Bunga Anggerik,BA:Jalan Bunga Anggerik,2.32697,102.2605,90013757,http://otp.transitos.io/otpws/api/cities/6/index/stops/1:90013757,0,
90013414,13414,Taman Bukit Katil Damai 2,BA:Taman Bukit Katil Damai 2,2.24283,102.31353,90013414,http://otp.transitos.io/otpws/api/cities/6/index/stops/1:90013414,0,
90013554,13554,Opp Pantai Klebang,BA:Opp Pantai Klebang,2.21946,102.19225,90013554,http://otp.transitos.io/otpws/api/cities/6/index/stops/1:90013554,0,
90013534,13534,Kuih Keria Haji Jalil,BA:Kuih Keria Haji Jalil,2.20463,102.22326,90013534,http://otp.transitos.io/otpws/api/cities/6/index/stops/1:90013534,0,
